     2.11           OBSERVATION DATA    M (MIXED)           RINEX VERSION / TYPE
JPS2RIN v.2.0.36    JAVAD GNSS          20160605 065308 UTC PGM / RUN BY / DATE
-Unknown-           -Unknown-                               OBSERVER / AGENCY
CRAC                                                        MARKER NAME
03UT1IMFLD3Q53VWB3JKTRIUMPH_6           3.4.14 Jan,29,2014  REC # / TYPE / VERS
  3857442.0112  1398092.0697  4867194.9685                  APPROX POSITION XYZ
-Unknown-           JAV_TRIUMPH-1R  NONE                    ANT # / TYPE
        1.5238        0.0000        0.0000                  ANTENNA: DELTA H/E/N
Antenna is slant; Height = 1.76                             COMMENT
     1     1                                                WAVELENGTH FACT L1/2
    14    C1    P1    L1    D1    S1    C2    P2    L2    D2# / TYPES OF OBSERV
          S2    C5    L5    D5    S5                        # / TYPES OF OBSERV
     5.000                                                  INTERVAL
  2014    10    17     7    58   30.0000000     GPS         TIME OF FIRST OBS
  2014    10    17     9     5   15.0000000     GPS         TIME OF LAST OBS
    16                                                      LEAP SECONDS
    21                                                      # OF SATELLITES
   G 3   802   802   802   802   802     0   802   802   802PRN / # OF OBS
         802     0     0     0     0                        PRN / # OF OBS
   G 5   773   703   714   773   703   692   652   714   714PRN / # OF OBS
         652     0     0     0     0                        PRN / # OF OBS
   G 8   412   397   397   412   397     0   397   397   397PRN / # OF OBS
         397     0     0     0     0                        PRN / # OF OBS
   G16   802   802   802   802   802     0   802   802   802PRN / # OF OBS
         802     0     0     0     0                        PRN / # OF OBS
   G18   541   527   527   541   527     0   527   527   527PRN / # OF OBS
         527     0     0     0     0                        PRN / # OF OBS
   G21   802   802   802   802   802     0   802   802   802PRN / # OF OBS
         802     0     0     0     0                        PRN / # OF OBS
   G25   301   300   300   301   300   301   300   300   300PRN / # OF OBS
         300   301   301   301   301                        PRN / # OF OBS
   G27   431   397   397   431   397   428   397   397   397PRN / # OF OBS
         397   424   424   424   424                        PRN / # OF OBS
   G29   778   772   772   778   772   775   772   772   772PRN / # OF OBS
         772     0     0     0     0                        PRN / # OF OBS
   G31   802   802   802   802   802   802   802   802   802PRN / # OF OBS
         802     0     0     0     0                        PRN / # OF OBS
   R 5   297   269   286   297   269   236   216   272   272PRN / # OF OBS
         216     0     0     0     0                        PRN / # OF OBS
   R 6   799   796   796   799   796   792   763   763   763PRN / # OF OBS
         763     0     0     0     0                        PRN / # OF OBS
   R 7   795   789   791   795   789   785   766   767   767PRN / # OF OBS
         766     0     0     0     0                        PRN / # OF OBS
   R11    87    87    87    87    87    86    79    79    79PRN / # OF OBS
          79     0     0     0     0                        PRN / # OF OBS
   R12   802   802   802   802   802   802   802   802   802PRN / # OF OBS
         802     0     0     0     0                        PRN / # OF OBS
   R13   801   800   800   801   800   801   790   790   790PRN / # OF OBS
         790     0     0     0     0                        PRN / # OF OBS
   R14   599   595   595   599   595   589   584   584   584PRN / # OF OBS
         584     0     0     0     0                        PRN / # OF OBS
   R21   571   554   555   571   554   555   508   508   508PRN / # OF OBS
         508     0     0     0     0                        PRN / # OF OBS
   R22   802   802   802   802   802   802   802   802   802PRN / # OF OBS
         802     0     0     0     0                        PRN / # OF OBS
   R23   802   802   802   802   802   802   793   793   793PRN / # OF OBS
         793     0     0     0     0                        PRN / # OF OBS
   R24   244   228   228   244   228   218   163   164   164PRN / # OF OBS
         163     0     0     0     0                        PRN / # OF OBS
                                                            END OF HEADER
 14 10 17  7 58 30.0000000  0 15G 3R 5R21G 5R12G31R11G25R13G16R22G29-0.000343311
                                G21R23R 6
  21416655.773    21416655.243   112545284.197 4      1399.381          26.750  
                  21416656.713    87697626.483 4      1090.516          26.750  
                                                                
  23275978.409    23275980.109   124423437.610 5     -2981.865          35.000  
  23276057.239                                                                  
                                                                
  21832982.674    21832983.104   116832671.583 6     -4207.528          41.500  
  21832990.234    21832990.934    90869857.850 7     -3272.404          42.000  
                                                                
  23217574.755    23217576.255   122009205.893 3     -1465.021          22.500  
  23217580.805    23217581.815    95072118.150 3     -1141.469          22.500  
                                                                
  20042756.403    20042756.533   107064796.193 7     -3488.805          45.500  
  20042765.903    20042766.163    83272622.049 7     -2713.538          42.000  
                                                                
  22402389.746    22402389.236   117725340.292 5     -3311.900          35.000  
  22402391.176    22402391.076    91734035.393 5     -2580.588          35.000  
                                                                
  23710764.887    23710766.057   126703124.112 6     -5584.051          40.750  
  23710783.497    23710782.147    98546865.071 6     -4343.202          36.750  
                                                                
  22944744.645    22944744.745   120575435.561 5     -4298.680          31.750  
  22944750.615    22944749.875    93954884.334 5     -3349.551          31.750  
  22944753.655    90040095.601 8     -3210.023          50.750  
  20652930.334    20652928.904   110285495.081 7       935.143          42.250  
  20652938.714    20652938.294    85777602.176 7       727.335          45.000  
                                                                
  23468501.993    23468500.993   123327815.402 4      2409.322          27.500  
                  23468502.633    96099593.677 4      1877.482          27.500  
                                                                
  19216334.091    19216333.151   102578084.376 8     -1574.416          53.000  
  19216339.801    19216340.081    79782955.057 8     -1224.549          48.000  
                                                                
  20453815.378    20453815.038   107485519.661 7     -2330.925          44.000  
  20453816.368    20453815.418    83754952.331 7     -1816.291          44.000  
                                                                
  21732009.552    21732008.122   114202482.786 6      1123.801          37.000  
                  21732009.072    88988950.042 6       875.700          37.000  
                                                                
  21425874.706    21425874.126   114613976.742 7      1901.869          43.250  
  21425883.986    21425884.196    89144200.898 6      1479.178          36.250  
                                                                
  22051726.957    22051728.077   117672276.362 6       641.358          38.000  
  22051738.477    22051735.167    91522885.000 5       498.909          31.000  
                                                                
 14 10 17  7 58 35.0000000  0 15G 3R 5R21G 5R12G31R11G25R13G16R22G29-0.000340454
                                G21R23R 6
  21415325.740    21415324.180   112538292.279 4      1397.426          26.500  
                  21415325.340    87692178.233 4      1088.848          26.500  
                                                                
  23278768.641    23278768.871   124438355.319 5     -2985.168          34.750  
  23278914.761    23278770.771    96785403.557 4     -2320.936          27.250  
                                                                
  21836914.035    21836914.355   116853709.958 6     -4207.575          40.000  
  21836920.995    21836921.825    90886221.013 6     -3272.573          41.250  
                                                                
  23218976.288    23218970.918   122016538.267 3     -1467.839          22.500  
  23218975.958    23218974.138    95077831.696 3     -1143.743          22.500  
                                                                
  20046023.755    20046023.875   107082248.427 7     -3492.140          46.000  
  20046032.625    20046032.515    83286196.008 7     -2716.104          42.000  
                                                                
  22405541.270    22405541.150   117741903.634 5     -3313.352          35.000  
  22405543.980    22405544.140    91746941.866 5     -2581.851          35.000  
                                                                
  23715991.187    23715991.047   126731043.082 6     -5583.628          39.250  
  23716008.047    23716007.187    98568579.811 6     -4342.689          37.000  
                                                                
  22948834.833    22948834.553   120596930.948 5     -4299.417          32.250  
  22948840.883    22948840.953    93971633.956 5     -3350.247          32.250  
  22948844.173    90056147.324 8     -3210.637          50.000  
  20652054.772    20652055.572   110280828.555 7       931.591          42.500  
  20652064.682    20652064.492    85773972.652 7       724.626          44.750  
                                                                
  23466209.588    23466209.658   123315769.798 4      2409.091          27.750  
                  23466210.258    96090207.479 4      1877.160          27.750  
                                                                
  19217809.918    19217808.938   102585961.244 8     -1576.332          52.500  
  19217815.708    19217815.288    79789081.510 8     -1226.044          48.250  
                                                                
  20456033.887    20456033.567   107497177.370 7     -2332.138          44.250  
  20456033.667    20456033.587    83764036.253 7     -1817.246          44.250  
                                                                
  21730941.005    21730939.265   114196867.460 6      1122.418          36.750  
                  21730940.335    88984574.460 6       874.614          36.750  
                                                                
  21424097.554    21424097.614   114604470.676 7      1900.721          43.250  
  21424102.634    21424107.484    89136807.310 6      1478.343          36.000  
                                                                
  22051124.392    22051126.282   117669078.961 6       637.821          37.000  
  22051139.082    22051136.462    91520398.179 5       496.157          30.000  
                                                                
 14 10 17  7 58 40.0000000  0 15G 3R 5R21G 5R12G31R11G25R13G16R22G29-0.000337598
                                G21R23R 6
  21413997.426    21413995.966   112531311.504 4      1394.938          27.000  
                  21413997.916    87686738.675 4      1086.988          27.000  
                                                                
  23281561.999    23281562.499   124453290.131 5     -2988.682          34.000  
  23281659.289                                                                  
                                                                
  21840849.554    21840845.474   116874750.559 6     -4208.849          38.250  
  21840855.414    21840854.874    90902585.949 6     -3273.622          41.250  
                                                                
  23220368.758    23220369.648   122023885.598 3     -1471.111          20.750  
  23220374.388    23220373.448    95083556.828 3     -1146.314          20.750  
                                                                
  20049294.688    20049294.478   107099718.800 7     -3496.009          45.500  
  20049302.688    20049303.878    83299784.066 7     -2719.104          42.250  
                                                                
  22408694.711    22408694.721   117758476.614 5     -3315.703          35.250  
  22408697.171    22408696.871    91759855.860 5     -2583.634          35.250  
                                                                
  23721214.978    23721215.478   126758961.867 6     -5583.552          41.000  
  23721231.168    23721231.678    98590294.357 5     -4342.563          32.250  
                                                                
  22952927.153    22952926.213   120618431.191 5     -4300.655          31.500  
  22952933.133    22952930.973    93988387.363 5     -3351.199          31.500  
  22952935.363    90072202.671 8     -3211.590          50.000  
  20651185.224    20651185.154   110276181.592 7       927.390          42.750  
  20651194.734    20651193.984    85770358.336 7       721.365          45.000  
                                                                
  23463915.948    23463917.688   123303727.361 4      2408.090          28.000  
                  23463919.958    96080823.783 4      1876.461          28.000  
                                                                
  19219287.250    19219286.490   102593849.260 8     -1578.798          52.750  
  19219292.750    19219293.220    79795216.629 8     -1227.959          48.500  
                                                                
  20458253.257    20458253.417   107508842.431 7     -2333.846          44.000  
  20458254.347    20458253.427    83773125.895 7     -1818.574          44.000  
                                                                
  21729873.555    21729872.655   114191260.472 6      1120.465          36.500  
                  21729873.935    88980205.390 6       873.078          36.500  
                                                                
  21422320.327    21422321.457   114594971.419 7      1899.144          44.250  
  21422333.387    21422329.897    89129418.997 5      1477.144          35.250  
                                                                
  22050534.665    22050532.435   117665899.920 6       633.891          36.000  
  22050543.535    22050540.825    91517925.643 5       493.114          30.500  
                                                                
 14 10 17  7 58 45.0000000  0 15G 3R 5R21G 5R12G31R11G25R13G16R22G29-0.000334742
                                G21R23R 6
  21412670.038    21412669.828   112524341.648 4      1392.824          27.750  
                  21412671.288    87681307.628 4      1085.467          27.750  
                                                                
  23284374.082    23284359.342   124468241.882 5     -2991.772          31.500  
  23284456.762    23284484.952    96808753.270 4     -2327.134          24.000  
                                                                
  21844779.621    21844779.311   116895793.076 6     -4208.685          37.000  
  21844784.711    21844786.641    90918952.323 6     -3273.302          40.500  
                                                                
  23221771.871    23221774.181   122031247.711 3     -1473.756          22.500  
  23221774.611    23221774.281    95089293.573 3     -1148.246          22.500  
                                                                
  20052569.342    20052568.392   107117207.045 7     -3499.571          45.500  
  20052577.312    20052577.292    83313386.014 6     -2721.878          41.500  
                                                                
  22411850.297    22411850.117   117775058.930 5     -3317.477          34.250  
  22411853.417    22411852.837    91772777.101 5     -2585.036          34.250  
                                                                
  23726440.822    23726439.292   126786880.140 6     -5583.706          39.500  
  23726454.202    23726455.692    98612008.489 5     -4343.021          33.750  
                                                                
  22957019.071    22957017.361   120639935.977 5     -4301.417          32.500  
  22957025.221    22957025.111    94005144.316 5     -3351.666          32.500  
  22957027.791    90088261.399 8     -3212.075          50.000  
  20650320.682    20650318.982   110271553.770 7       923.618          43.000  
  20650328.042    20650327.112    85766758.909 7       718.348          44.750  
                                                                
  23461626.226    23461624.516   123291687.772 4      2407.710          27.000  
                  23461627.306    96071442.265 4      1876.171          27.000  
                                                                
  19220766.297    19220766.487   102601747.954 8     -1580.882          52.500  
  19220773.127    19220772.527    79801360.047 8     -1229.572          48.250  
                                                                
  20460474.461    20460474.221   107520514.577 7     -2335.255          44.000  
  20460474.861    20460474.711    83782221.067 7     -1819.674          44.000  
                                                                
  21728809.126    21728807.446   114185661.592 6      1118.892          36.750  
                  21728808.566    88975842.632 6       871.883          36.750  
                                                                
  21420546.461    21420547.171   114585478.745 7      1897.813          44.500  
  21420552.601    21420555.971    89122035.805 5      1476.118          33.750  
                                                                
  22049934.822    22049939.802   117662739.041 6       630.166          38.000  
  22049947.802    22049949.462    91515467.159 5       490.175          31.000  
                                                                
 14 10 17  7 58 50.0000000  0 15G 3R 5R21G 5R12G31R11G25R13G16R22G29-0.000331888
                                G21R23R 6
  21411345.543    21411344.243   112517382.674 4      1390.583          27.000  
                  21411346.353    87675885.050 4      1083.669          27.000  
                                                                
  23287201.305                   124483210.544       -2995.505                  
  23287246.315    23287282.925    96820396.796 3     -2329.770          23.750  
                                                                
  21848713.914    21848709.904   116916837.475 5     -4209.369          34.500  
  21848718.644    21848719.614    90935320.182 6     -3273.976          41.250  
                                                                
  23223174.774    23223177.624   122038624.709 3     -1477.174          22.500  
  23223179.264    23223178.314    95095041.853 3     -1150.944          22.500  
                                                                
  20055846.484    20055845.254   107134713.172 7     -3503.212          45.750  
  20055853.144    20055854.684    83327001.882 6     -2724.761          41.250  
                                                                
  22415008.191    22415007.361   117791650.543 5     -3319.385          34.750  
  22415010.441    22415010.211    91785705.641 5     -2586.491          34.750  
                                                                
  23731663.200    23731663.480   126814797.883 6     -5583.576          37.500  
  23731679.960    23731680.480    98633722.273 5     -4342.790          35.500  
                                                                
  22961111.211    22961110.301   120661445.296 5     -4302.484          32.500  
  22961118.431    22961117.591    94021904.791 5     -3352.613          32.500  
  22961121.021    90104323.534 8     -3212.876          49.750  
  20649455.439    20649455.979   110266945.329 7       919.635          42.250  
  20649464.319    20649464.419    85763174.580 7       715.254          44.750  
                                                                
  23459336.288    23459335.598   123279651.005 4      2406.846          27.250  
                  23459337.878    96062062.978 4      1875.448          27.250  
                                                                
  19222248.261    19222248.011   102609657.409 8     -1583.143          52.750  
  19222255.051    19222254.671    79807511.845 8     -1231.303          48.500  
                                                                
  20462697.251    20462697.061   107532193.815 7     -2336.788          43.750  
  20462697.431    20462697.051    83791321.764 7     -1820.865          43.750  
                                                                
  21727744.533    21727743.383   114180070.845 6      1117.167          37.250  
                  21727744.693    88971486.212 6       870.524          37.250  
                                                                
  21418775.656    21418773.776   114575992.684 7      1896.390          45.000  
  21418778.206    21418783.396    89114657.759 5      1474.923          33.750  
                                                                
  22049351.288    22049351.238   117659596.552 6       626.424          38.500  
  22049356.008    22049359.348    91513023.021 5       487.356          31.000  
                                                                
 14 10 17  7 58 55.0000000  0 15G 3R 5R21G 5R12G31R11G25R13G16R22G29-0.000329031
                                G21R23R 6
  21410024.873    21410023.553   112510436.673 4      1387.840          26.500  
                  21410024.713    87670472.556 4      1081.268          26.500  
                                                                
  23290084.541                   124498197.706       -2999.897                  
                  23290076.601    96832057.964 3     -2332.511          22.000  
                                                                
  21852643.594    21852638.864   116937885.818 5     -4210.203          31.500  
  21852652.494    21852652.894    90951691.172 6     -3274.837          41.000  
                                                                
  23224583.615    23224584.525   122046018.439 3     -1480.411          23.250  
  23224585.645    23224585.105    95100803.184 3     -1153.534          23.250  
                                                                
  20059125.662    20059126.362   107152239.135 7     -3507.295          45.750  
  20059136.702    20059135.712    83340633.182 6     -2727.883          41.500  
                                                                
  22418167.524    22418167.314   117808253.570 5     -3321.856          34.750  
  22418169.584    22418169.754    91798643.035 5     -2588.487          34.750  
                                                                
  23736891.776    23736888.686   126842717.112 6     -5583.948          37.500  
  23736903.776    23736905.536    98655437.246 5     -4343.027          35.500  
                                                                
  22965206.089    22965205.029   120682961.191 5     -4303.875          33.250  
  22965212.569    22965211.729    94038670.393 5     -3353.673          33.250  
  22965215.419    90120390.555 8     -3213.924          50.000  
  20648596.426    20648596.086   110262358.173 7       915.323          42.000  
  20648605.496    20648605.726    85759606.794 7       711.954          45.000  
                                                                
  23457046.875    23457046.835   123267619.207 4      2405.713          27.750  
                  23457048.625    96052687.569 4      1874.692          27.750  
                                                                
  19223732.828    19223731.998   102617579.618 8     -1585.907          53.250  
  19223738.948    19223738.848    79813673.569 8     -1233.454          48.750  
                                                                
  20464920.848    20464921.018   107543882.183 7     -2338.678          43.500  
  20464921.598    20464921.348    83800429.574 7     -1822.376          43.500  
                                                                
  21726682.270    21726681.450   114174490.260 6      1115.054          37.250  
                  21726682.190    88967137.707 6       868.868          37.250  
                                                                
  21417003.610    21417002.810   114566515.220 7      1894.525          44.750  
  21417015.520    21417013.260    89107286.435 5      1473.570          34.000  
                                                                
  22048764.210    22048764.920   117656474.287 6       622.721          37.000  
  22048774.390    22048774.450    91510594.632 5       484.405          30.750  
                                                                
 14 10 17  7 59  0.0000000  0 16G 3R 7R 5R21G 5R12G31R11G25R13G16R22-0.000326182
                                G29G21R23R 6
  21408705.157    21408701.927   112503502.297 4      1386.003          26.750  
                  21408704.267    87665069.172 4      1079.962          26.750  
                                                                
  23474063.146                                        3021.182                  
                                                                                
                                                                
  23292865.383                   124513203.300       -3002.850                  
                                                                                
                                                                
  21856573.483    21856573.273   116958936.952 5     -4210.483          33.750  
  21856587.653    21856585.503    90968064.204 6     -3275.012          40.500  
                                                                
  23225992.979    23225990.969   122053427.708 4     -1483.141          25.250  
  23225997.149    23225996.429    95106576.628 4     -1155.700          25.250  
                                                                
  20062410.740    20062411.040   107169783.722 7     -3510.582          46.000  
  20062418.810    20062419.510    83354278.940 6     -2730.451          41.250  
                                                                
  22421328.904    22421328.774   117824866.574 5     -3323.330          35.500  
  22421331.634    22421331.264    91811588.231 5     -2589.581          35.500  
                                                                
  23742112.488    23742112.408   126870636.563 6     -5583.779          38.750  
  23742132.918    23742129.968    98677152.323 6     -4342.996          36.000  
                                                                
  22969300.552    22969300.592   120704482.319 5     -4304.558          32.750  
  22969308.312    22969307.512    94055440.099 5     -3354.203          32.750  
  22969310.432    90136461.502 8     -3214.459          49.750  
  20647743.160    20647741.750   110257790.929 7       911.679          42.000  
  20647749.750    20647749.660    85756054.488 7       709.167          44.500  
                                                                
  23454757.369    23454758.959   123255590.996 4      2405.497          27.500  
                  23454759.429    96043314.940 4      1874.304          27.500  
                                                                
  19225218.563    19225218.373   102625513.306 8     -1587.609          53.500  
  19225224.983    19225225.253    79819844.204 8     -1234.809          48.500  
                                                                
  20467147.071    20467146.721   107555578.328 7     -2339.765          43.250  
  20467147.381    20467147.181    83809543.450 7     -1823.162          43.250  
                                                                
  21725621.916    21725620.886   114168918.483 6      1113.720          37.000  
                  21725622.406    88962796.079 6       867.868          37.000  
                                                                
  21415230.071    21415232.231   114557045.147 7      1893.566          44.250  
  21415240.321    21415241.831    89099920.836 5      1472.820          32.250  
                                                                
  22048183.293    22048185.583   117653371.025 6       619.126          38.250  
  22048194.683    22048194.683    91508180.993 5       481.660          31.500  
                                                                
 14 10 17  7 59  5.0000000  0 16G 3R 7R 5R21G 5R12G31R11G25R13G16R22-0.000323330
                                G29G21R23R 6
  21407387.476    21407385.296   112496579.830 4      1383.380          26.250  
                  21407389.776    87659675.055 4      1078.138          26.250  
                                                                
  23471217.975    23471222.605   125643314.516 5      3020.176          33.250  
                                                                                
                                                                
  23295667.303                   124528226.012       -3005.849                  
  23295691.133                                                                  
                                                                
  21860505.948    21860509.608   116979990.851 6     -4211.127          37.500  
  21860521.368    21860520.158    90984439.461 6     -3275.245          40.000  
                                                                
  23227406.386    23227403.606   122060852.641 4     -1486.669          24.750  
  23227409.286    23227409.626    95112362.296 4     -1158.426          24.750  
                                                                
  20065699.580    20065698.690   107187346.994 7     -3514.586          46.000  
  20065706.740    20065707.640    83367939.257 6     -2733.530          41.500  
                                                                
  22424492.341    22424491.571   117841489.808 5     -3325.700          34.750  
  22424494.801    22424493.761    91824541.386 5     -2591.508          34.750  
                                                                
  23747339.048    23747340.298   126898556.336 6     -5583.857          41.500  
  23747353.548    23747354.708    98698867.619 5     -4343.141          34.500  
                                                                
  22973397.675    22973396.995   120726008.898 5     -4305.860          32.500  
  22973403.395    22973403.475    94072214.029 5     -3355.171          32.500  
  22973407.195    90152536.525 8     -3215.370          50.750  
  20646892.532    20646889.452   110253243.854 7       907.418          42.750  
  20646898.662    20646897.972    85752517.884 7       705.863          44.250  
                                                                
  23452469.386    23452469.276   123243566.558 4      2404.512          27.500  
                  23452470.816    96033945.249 4      1873.621          27.500  
                                                                
  19226707.614    19226706.974   102633458.646 8     -1590.251          53.500  
  19226714.194    19226713.494    79826023.907 8     -1236.878          48.500  
                                                                
  20469374.436    20469373.796   107567282.515 7     -2341.671          43.750  
  20469374.536    20469374.596    83818663.571 7     -1824.642          43.750  
                                                                
  21724563.502    21724562.802   114163355.764 6      1111.607          37.000  
                  21724564.382    88958461.494 6       866.194          37.000  
                                                                
  21413463.751    21413463.221   114547582.577 7      1891.770          43.750  
  21413471.521    21413474.261    89092561.050 5      1471.412          34.750  
                                                                
  22047608.699    22047606.549   117650287.067 6       615.015          39.000  
  22047615.979    22047616.669    91505782.362 5       478.370          32.750  
                                                                
 14 10 17  7 59 10.0000000  0 16G 3R 7R 5R21G 5R12G31R11G25R13G16R22-0.000320478
                                G29G21R23R 6
  21406072.215    21406070.655   112489669.570 4      1380.274          26.250  
                  21406073.275    87654290.436 4      1075.520          26.250  
                                                                
  23468396.592    23468400.612   125628217.391 5      3018.684          32.750  
  23468470.022                                                                  
                                                                
  23298454.579                   124543271.471       -3010.803                  
  23298418.629                                                                  
                                                                
  21864442.615    21864445.695   117001047.968 6     -4212.218          39.000  
  21864455.605    21864455.945    91000817.161 6     -3276.115          40.000  
                                                                
  23228822.933    23228820.073   122068293.651 3     -1490.502          23.250  
  23228823.973    23228825.043    95118160.441 3     -1161.553          23.250  
                                                                
  20068992.348    20068990.178   107204929.380 7     -3518.902          45.250  
  20068999.768    20068999.128    83381614.429 6     -2736.971          41.750  
                                                                
  22427656.884    22427657.494   117858123.599 5     -3328.288          35.250  
  22427660.804    22427659.504    91837502.769 5     -2593.370          35.250  
                                                                
  23752563.927    23752563.867   126926476.738 6     -5584.781          40.250  
  23752580.897    23752579.917    98720583.506 5     -4343.607          35.500  
                                                                
  22977494.881    22977494.061   120747541.202 5     -4307.500          32.250  
  22977502.101    22977501.261    94088992.419 5     -3356.572          32.250  
  22977504.551    90168615.829 8     -3216.674          50.000  
  20646042.410    20646041.930   110248717.310 7       902.843          42.250  
  20646051.510    20646051.130    85748997.235 7       702.226          44.750  
                                                                
  23450182.755    23450183.245   123231546.339 4      2403.019          27.750  
                  23450184.315    96024578.887 4      1872.403          27.750  
                                                                
  19228197.889    19228197.639   102641415.954 8     -1593.158          53.500  
  19228204.209    19228203.959    79832212.919 8     -1239.127          48.250  
                                                                
  20471602.640    20471602.550   107578995.038 7     -2343.857          43.500  
  20471603.940    20471603.140    83827790.207 7     -1826.401          43.500  
                                                                
  21723506.706    21723505.926   114157802.477 6      1109.190          38.000  
                  21723507.596    88954134.261 6       864.262          38.000  
                                                                
  21411696.276    21411695.796   114538127.815 7      1889.666          44.750  
  21411709.596    21411705.466    89085207.341 5      1469.715          33.750  
                                                                
  22047033.089    22047033.039   117647222.656 6       610.469          39.500  
  22047036.369    22047041.889    91503398.999 5       474.841          30.750  
                                                                
 14 10 17  7 59 15.0000000  0 16G 3R 7R 5R21G 5R12G31R11G25R13G16R22-0.000317626
                                G29G21R23R 6
  21404760.107    21404760.457   112482771.867 4      1378.116          26.500  
                  21404760.117    87648915.573 4      1073.789          26.500  
                                                                
  23465583.957    23465583.787   125613125.243 5      3017.484          32.250  
  23465734.487                                                                  
                                                                
  23301263.847    23301267.087   124558329.088 4     -3014.368          29.250  
  23301228.367                    96879012.055       -2344.899                  
                                                                
  21868377.274    21868382.134   117022108.547 6     -4212.612          38.750  
  21868390.294    21868390.994    91017197.584 6     -3276.549          39.750  
                                                                
  23230242.531    23230241.701   122075750.947 3     -1493.464          23.750  
  23230243.691    23230243.751    95123971.350 3     -1163.775          23.750  
                                                                
  20072284.591    20072285.291   107222531.105 7     -3522.479          45.500  
  20072293.251    20072294.031    83395304.652 7     -2739.737          42.000  
                                                                
  22430825.019    22430824.909   117874768.170 5     -3330.255          34.500  
  22430827.279    22430826.589    91850472.540 5     -2595.075          34.500  
                                                                
  23757789.487    23757789.687   126954398.151 6     -5584.623          38.250  
  23757803.297    23757806.267    98742300.067 5     -4343.712          35.750  
                                                                
  22981593.035    22981592.845   120769079.611 5     -4308.596          31.750  
  22981600.715    22981599.955    94105775.565 5     -3357.385          31.750  
  22981603.245    90184699.678 8     -3217.482          50.500  
  20645200.737    20645198.457   110244211.805 7       898.716          42.000  
  20645207.657    20645206.807    85745492.952 7       699.011          44.000  
                                                                
  23447894.071    23447894.611   123219530.650 4      2402.400          28.000  
                  23447897.701    96015216.030 4      1872.102          28.000  
                                                                
  19229690.990    19229690.650   102649385.613 8     -1595.410          53.500  
  19229696.340    19229696.830    79838411.536 8     -1240.890          48.250  
                                                                
  20473833.579    20473833.099   107590716.209 7     -2345.311          43.000  
  20473833.839    20473833.529    83836923.588 7     -1827.511          43.000  
                                                                
  21722451.740    21722450.820   114152258.875 6      1107.525          38.000  
                  21722452.390    88949814.577 6       863.000          38.000  
                                                                
  21409929.416    21409929.546   114528681.263 7      1888.299          44.250  
  21409930.446    21409938.556    89077860.096 5      1468.714          34.250  
                                                                
  22046462.652    22046463.252   117644178.165 6       606.733          40.250  
  22046463.722    22046470.772    91501031.078 4       472.000          29.750  
                                                                
 14 10 17  7 59 20.0000000  0 15G 3R 7R21G 5R12G31R11G25R13G16R22G29-0.000314774
                                G21R23R 6
  21403449.342    21403448.832   112475886.597 4      1375.905          27.000  
                  21403449.922    87643550.463 4      1072.179          27.000  
                                                                
  23462765.446    23462763.916   125598037.935 5      3017.414          32.250  
                                                                                
                                                                
  21872313.049    21872313.279   117043172.494 6     -4212.952          39.250  
  21872326.959    21872327.139    91033580.637 6     -3276.775          40.000  
                                                                
  23231662.372    23231666.462   122083224.426 3     -1496.202          23.500  
  23231665.462    23231666.232    95129794.855 3     -1165.844          23.500  
                                                                
  20075584.028    20075583.958   107240152.127 7     -3526.120          45.250  
  20075593.008    20075592.988    83409009.883 7     -2742.580          42.000  
                                                                
  22433993.483    22433993.933   117891423.464 5     -3332.067          35.000  
  22433997.373    22433996.803    91863450.689 5     -2596.397          35.000  
                                                                
  23763014.956    23763014.906   126982320.327 6     -5584.691          37.500  
  23763031.136    23763030.106    98764017.292 5     -4343.677          35.250  
                                                                
  22985693.836    22985692.866   120790623.938 5     -4309.429          32.750  
  22985700.726    22985700.176    94122563.356 5     -3357.978          32.750  
  22985703.036    90200787.944 8     -3218.087          50.750  
  20644358.509    20644357.789   110239727.012 6       894.804          41.500  
  20644367.789    20644367.339    85742004.774 7       695.922          44.000  
                                                                
  23445608.903    23445609.153   123207519.413 4      2401.764          27.250  
                  23445611.303    96005856.605 4      1871.447          27.250  
                                                                
  19231186.397    19231186.127   102657367.451 8     -1597.575          53.500  
  19231192.117    19231192.467    79844619.632 8     -1242.570          48.000  
                                                                
  20476066.049    20476065.349   107602445.900 7     -2346.783          43.250  
  20476066.059    20476065.709    83846063.593 7     -1828.681          43.250  
                                                                
  21721399.252    21721397.622   114146724.869 6      1105.948          37.500  
                  21721399.472    88945502.372 6       861.772          37.500  
                                                                
  21408164.577    21408164.637   114519242.860 7      1886.914          45.000  
  21408174.757    21408173.887    89070519.099 5      1467.524          32.750  
                                                                
  22045895.892    22045895.652   117641153.409 6       603.246          39.000  
  22045903.732    22045904.012    91498678.512 5       469.324          31.250  
                                                                
 14 10 17  7 59 25.0000000  0 15G 3R 7R21G 5R12G31R11G25R13G16R22G29-0.000311923
                                G21R23R 6
  21402142.259    21402140.779   112469013.032 4      1373.861          27.500  
                  21402143.449    87638194.420 4      1070.444          27.500  
                                                                
  23459946.540    23459946.200   125582954.940 5      3016.398          32.750  
                                                                                
                                                                
  21876253.305    21876252.515   117064238.976 6     -4213.150          40.750  
  21876265.085    21876263.415    91049965.684 6     -3276.851          39.750  
                                                                
  23233091.282    23233091.962   122090713.525 3     -1498.885          23.500  
  23233092.322    23233091.122    95135630.500 3     -1167.882          23.500  
                                                                
  20078886.977    20078886.717   107257791.555 7     -3529.351          46.000  
  20078895.777    20078895.107    83422729.417 7     -2745.021          42.000  
                                                                
  22437165.165    22437164.835   117908088.741 5     -3333.664          34.000  
  22437167.955    22437167.355    91876436.589 5     -2597.695          34.000  
                                                                
  23768239.736    23768240.996   127010242.483 6     -5584.123          39.500  
  23768256.206    23768255.056    98785734.443 6     -4343.298          36.750  
                                                                
  22989793.423    22989793.363   120812173.478 5     -4310.054          33.000  
  22989801.203    22989800.313    94139355.186 5     -3358.446          33.000  
  22989803.653    90216880.104 8     -3218.495          51.000  
  20643522.448    20643522.568   110235262.195 7       891.338          42.500  
  20643530.318    20643531.148    85738532.145 7       693.234          43.750  
                                                                
  23443325.887    23443322.717   123195511.831 4      2401.591          26.500  
                  23443327.627    95996500.082 4      1871.409          26.500  
                                                                
  19232683.956    19232683.526   102665360.666 8     -1599.427          53.750  
  19232689.766    19232689.586    79850836.575 8     -1243.956          48.000  
                                                                
  20478298.781    20478299.081   107614183.322 7     -2347.844          43.000  
  20478299.291    20478299.581    83855209.632 7     -1829.443          43.000  
                                                                
  21720347.619    21720346.379   114141199.745 6      1104.487          37.500  
                  21720348.289    88941197.092 6       860.671          37.500  
                                                                
  21406401.549    21406401.379   114509811.658 7      1885.883          45.000  
  21406414.219    21406410.639    89063183.739 5      1466.935          32.500  
                                                                
  22045332.069    22045331.589   117638147.601 6       599.519          38.250  
  22045339.109    22045340.799    91496340.708 5       466.386          32.000  
                                                                
 14 10 17  7 59 30.0000000  0 15G 3R 7R21G 5R12G31R11G25R13G16R22G29-0.000309072
                                G21R23R 6
  21400835.659    21400835.849   112462150.814 4      1371.561          27.250  
                  21400836.419    87632847.286 4      1068.842          27.250  
                                                                
  23457128.998    23457128.308   125567875.802 5      3015.412          31.250  
  23457164.138                                                                  
                                                                
  21880190.695    21880191.025   117085307.816 6     -4213.681          40.250  
  21880199.855    21880201.315    91066352.525 6     -3277.330          40.000  
                                                                
  23234518.138    23234519.148   122098217.710 3     -1502.137          23.750  
  23234520.168    23234516.758    95141477.939 3     -1170.404          23.750  
                                                                
  20082192.078    20082191.928   107275449.083 7     -3533.076          46.000  
  20082200.788    20082200.988    83436463.040 7     -2747.899          43.000  
                                                                
  22440338.744    22440338.284   117924763.623 5     -3335.809          35.500  
  22440340.564    22440340.654    91889429.998 5     -2599.230          35.500  
                                                                
  23773463.215    23773465.045   127038164.458 6     -5584.167          40.250  
  23773481.105    23773482.025    98807451.530 5     -4343.109          35.750  
                                                                
  22993895.366    22993894.326   120833727.882 5     -4311.208          30.750  
  22993903.066    22993902.846    94156150.792 5     -3359.425          30.750  
  22993905.156    90232975.901 8     -3219.339          51.000  
  20642690.107    20642689.427   110230817.157 6       887.169          41.750  
  20642699.817    20642699.027    85735074.897 7       690.045          44.000  
                                                                
  23441040.791    23441038.811   123183507.655 4      2400.682          27.500  
                  23441041.371    95987146.206 4      1870.783          27.500  
                                                                
  19234183.596    19234182.876   102673365.071 8     -1601.872          53.250  
  19234189.166    19234189.246    79857062.220 7     -1245.865          47.750  
                                                                
  20480533.668    20480533.858   107625928.221 7     -2349.574          42.750  
  20480534.618    20480534.418    83864361.497 7     -1830.825          42.750  
                                                                
  21719297.368    21719296.808   114135683.177 6      1102.561          38.000  
                  21719298.748    88936898.446 6       859.132          38.000  
                                                                
  21404638.508    21404639.908   114500387.469 7      1884.281          45.000  
  21404652.998    21404650.058    89055853.792 5      1465.496          34.500  
                                                                
  22044769.443    22044772.413   117635160.698 6       595.761          39.250  
  22044780.123    22044782.143    91494017.555 5       463.472          31.000  
                                                                
 14 10 17  7 59 35.0000000  0 16G 3R 7R 5R21G 5R12G31R11G25R13G16R22-0.000306223
                                G29G21R23R 6
  21399531.885    21399531.955   112455300.010 4      1369.192          28.000  
                  21399534.215    87627508.955 4      1066.911          28.000  
                                                                
  23454302.755    23454310.585   125552800.428 5      3014.743          30.500  
                                                                                
                                                                
  23312605.757    23312574.097   124619302.109 3     -3027.703          19.750  
                                                                                
                                                                
  21884128.124    21884127.694   117106378.846 6     -4214.395          40.250  
  21884138.314    21884138.874    91082741.102 6     -3277.929          39.500  
                                                                
  23235947.779    23235951.259   122105737.005 4     -1505.232          24.000  
  23235949.069    23235949.779    95147337.144 4     -1172.892          24.000  
                                                                
  20085499.823    20085501.033   107293124.683 7     -3536.773          45.500  
  20085507.823    20085509.543    83450210.715 7     -2750.796          42.250  
                                                                
  22443513.813    22443512.533   117941448.022 5     -3337.680          34.000  
  22443516.273    22443515.973    91902430.795 5     -2600.867          34.000  
                                                                
  23778690.552    23778690.872   127066086.096 6     -5584.042          41.000  
  23778704.162    23778705.882    98829168.361 5     -4343.120          35.750  
                                                                
  22997997.708    22997997.708   120855287.065 5     -4312.209          32.750  
  22998005.548    22998003.888    94172950.125 5     -3360.168          32.750  
  22998008.008    90249075.269 8     -3220.106          50.250  
  20641862.665    20641861.575   110226391.868 6       883.268          41.750  
  20641869.835    20641870.245    85731632.981 7       686.945          44.250  
                                                                
  23438757.911    23438756.531   123171506.800 4      2400.063          27.500  
                  23438757.031    95977794.868 4      1870.323          27.500  
                                                                
  19235684.612    19235684.582   102681380.383 8     -1604.026          53.500  
  19235691.412    19235690.812    79863296.353 8     -1247.548          48.000  
                                                                
  20482770.614    20482770.424   107637680.512 7     -2351.021          43.000  
  20482771.364    20482770.544    83873519.121 7     -1831.935          43.000  
                                                                
  21718249.804    21718248.804   114130175.065 6      1100.898          38.750  
                  21718250.544    88932606.424 6       857.843          38.750  
                                                                
  21402880.198    21402880.208   114490970.253 7      1882.933          46.250  
  21402892.028    21402891.118    89048529.326 5      1464.552          35.000  
                                                                
  22044215.717    22044215.147   117632192.488 6       591.948          38.500  
  22044228.717    22044224.887    91491708.932 5       460.250          32.000  
                                                                
 14 10 17  7 59 40.0000000  0 16G 3R 7R 5R21G 5R12G31R11G25R13G16R22-0.000303373
                                G29G21R23R 6
  21398230.327    21398230.787   112448461.633 4      1366.490          27.000  
                  21398232.127    87622180.345 4      1064.812          27.000  
                                                                
  23451501.824    23451495.484   125537730.114 4      3013.899          29.500  
                                                                                
                                                                
  23315436.229    23315449.259   124634447.758 3     -3031.568          18.500  
                                                                                
                                                                
  21888069.790    21888065.960   117127453.223 6     -4215.103          39.250  
  21888077.880    21888076.890    91099132.264 6     -3278.269          39.250  
                                                                
  23237380.601    23237382.191   122113272.482 3     -1508.757          23.500  
  23237382.351    23237381.451    95153208.934 3     -1175.654          23.500  
                                                                
  20088814.769    20088813.189   107310819.338 7     -3540.871          45.500  
  20088822.889    20088822.439    83463973.205 7     -2754.009          42.500  
                                                                
  22446690.686    22446690.356   117958143.155 5     -3340.004          34.500  
  22446692.786    22446692.726    91915439.961 5     -2602.589          34.500  
                                                                
  23783915.542    23783917.392   127094008.599 5     -5584.508          35.250  
  23783932.882    23783930.452    98850885.722 6     -4343.652          37.000  
                                                                
  23002102.017    23002100.547   120876852.168 5     -4313.671          30.250  
  23002108.547    23002108.407    94189754.099 5     -3361.221          30.250  
  23002111.387    90265179.045 8     -3221.196          50.000  
  20641037.510    20641036.530   110221987.428 6       878.860          41.500  
  20641045.220    20641045.470    85728207.313 7       683.556          43.750  
                                                                
  23436473.180    23436473.390   123159510.345 4      2398.964          27.500  
                  23436475.280    95968446.951 4      1869.360          27.500  
                                                                
  19237188.904    19237188.144   102689407.909 8     -1606.694          53.000  
  19237193.914    19237193.894    79869539.974 7     -1249.657          47.250  
                                                                
  20485008.346    20485008.276   107649441.280 7     -2352.973          43.750  
  20485008.816    20485008.786    83882683.336 7     -1833.509          43.750  
                                                                
  21717202.554    21717202.264   114124676.533 6      1098.810          38.750  
                  21717204.034    88928321.874 6       856.221          38.750  
                                                                
  21401121.007    21401120.757   114481561.078 7      1881.119          45.250  
  21401130.147    21401129.987    89041211.070 5      1463.062          34.500  
                                                                
  22043663.748    22043664.068   117629244.065 6       587.867          38.250  
  22043667.908    22043672.408    91489415.720 5       457.095          33.250  
                                                                
 14 10 17  7 59 45.0000000  0 16G 3R 7R 5R21G 5R12G31R11G25R13G16R22-0.000300525
                                G29G21R23R 6
  21396930.466    21396930.596   112441634.793 4      1364.016          27.000  
                  21396932.776    87616860.748 4      1062.863          27.000  
                                                                
  23448674.083    23448684.353   125522663.943 4      3012.340          29.750  
  23448699.333                                                                  
                                                                
  23318269.931    23318293.981   124649612.132 4     -3035.488          24.500  
                                                                                
                                                                
  21892012.174    21892011.674   117148529.932 6     -4216.124          38.750  
  21892016.004    21892014.894    91115525.245 6     -3279.208          39.500  
                                                                
  23238816.895    23238819.375   122120823.234 3     -1512.084          22.750  
  23238818.845    23238821.475    95159092.591 3     -1178.279          22.750  
                                                                
  20092128.501    20092129.291   107328532.312 7     -3544.737          45.500  
  20092136.331    20092138.121    83477749.949 7     -2757.029          42.250  
                                                                
  22449869.362    22449869.372   117974847.940 5     -3342.281          34.250  
  22449871.312    22449871.792    91928456.664 5     -2604.512          34.250  
                                                                
  23789138.193    23789141.473   127121930.754 6     -5584.679          36.250  
  23789159.193    23789156.293    98872602.944 6     -4343.575          36.750  
                                                                
  23006206.425    23006205.915   120898422.198 5     -4314.884          31.250  
  23006214.015    23006213.475    94206561.889 5     -3362.267          31.250  
  23006216.425    90281286.504 8     -3222.238          50.250  
  20640213.288    20640215.468   110217602.904 7       874.646          43.000  
  20640224.118    20640224.078    85724797.128 7       680.318          43.750  
                                                                
  23434193.097    23434192.087   123147517.438 4      2397.995          27.750  
                  23434193.677    95959101.841 4      1868.482          27.750  
                                                                
  19238694.492    19238693.852   102697446.617 8     -1609.141          53.250  
  19238700.262    19238700.492    79875792.293 7     -1251.564          47.750  
                                                                
  20487248.290    20487247.860   107661209.561 7     -2354.711          43.250  
  20487248.390    20487248.280    83891853.444 7     -1834.840          43.250  
                                                                
  21716158.778    21716157.578   114119186.679 6      1096.801          38.250  
                  21716159.328    88924044.057 6       854.653          38.250  
                                                                
  21399364.607    21399362.437   114472159.059 7      1879.479          44.750  
  21399372.117    21399372.967    89033898.409 5      1461.968          33.750  
                                                                
  22043111.644    22043115.134   117626314.504 6       583.768          38.500  
  22043119.504    22043125.724    91487137.236 5       453.988          33.250  
                                                                
 14 10 17  7 59 50.0000000  0 16G 3R 7R 5R21G 5R12G31R11G25R13G16R22-0.000297676
                                G29G21R23R 6
  21395636.490    21395634.840   112434821.063 4      1361.471          27.250  
                  21395636.310    87611551.327 4      1060.734          27.250  
                                                                
  23445868.925    23445870.115   125507602.712 5      3011.620          31.250  
  23445896.535                                                                  
                                                                
  23321155.175    23321137.465   124664796.013 5     -3038.052          30.500  
                                  96961534.060       -2362.923                  
                                                                
  21895952.973    21895951.673   117169610.572 6     -4216.592          38.250  
  21895955.883    21895955.043    91131921.275 6     -3279.558          39.750  
                                                                
  23240256.234    23240256.464   122128390.797 3     -1515.254          22.750  
  23240261.654    23240259.784    95164989.425 3     -1180.502          22.750  
                                                                
  20095448.166    20095448.626   107346265.038 7     -3548.470          45.500  
  20095456.006    20095458.016    83491542.068 7     -2759.904          42.000  
                                                                
  22453050.577    22453050.167   117991564.011 5     -3344.357          34.250  
  22453052.747    22453052.557    91941482.151 5     -2606.054          34.250  
                                                                
  23794366.898    23794368.848   127149854.268 6     -5584.865          37.500  
  23794383.398    23794381.618    98894322.199 6     -4343.833          36.000  
                                                                
  23010312.496    23010311.026   120919998.712 5     -4315.954          31.000  
  23010319.936    23010319.676    94223374.736 5     -3363.211          31.000  
  23010322.576    90297398.825 8     -3223.005          50.500  
  20639400.328    20639398.058   110213239.712 7       870.446          43.250  
  20639406.968    20639406.938    85721403.534 7       677.013          44.250  
                                                                
  23431911.625    23431910.195   123135529.611 4      2397.107          27.750  
                  23431912.215    95949760.680 4      1867.887          27.750  
                                                                
  19240202.385    19240202.405   102705498.046 8     -1611.530          53.250  
  19240209.565    19240208.445    79882054.514 7     -1253.423          47.750  
                                                                
  20489489.293    20489489.093   107672986.943 7     -2356.372          43.250  
  20489489.253    20489489.353    83901030.617 7     -1836.168          43.250  
                                                                
  21715115.815    21715114.675   114113707.044 6      1094.943          38.500  
                  21715116.335    88919774.213 6       853.194          38.500  
                                                                
  21397607.032    21397606.652   114462765.795 7      1877.875          43.500  
  21397618.762    21397619.722    89026592.549 5      1460.579          34.250  
                                                                
  22042569.787    22042568.177   117623405.432 6       579.852          38.250  
  22042576.257    22042577.817    91484874.630 5       451.026          32.750  
                                                                
 14 10 17  7 59 55.0000000  0 16G 3R 7R 5R21G 5R12G31R11G25R13G16R22-0.000294827
                                G29G21R23R 6
  21394341.665    21394339.275   112428019.022 4      1359.483          27.250  
                  21394341.935    87606251.074 4      1059.264          27.250  
                                                                
  23443058.661    23443058.611   125492546.651 5      3011.483          32.250  
  23443126.331                                                                  
                                                                
  23323977.487    23323981.567   124679996.985 5     -3041.564          31.250  
                                  96973357.667       -2365.668                  
                                                                
  21899885.117    21899893.507   117190693.692 6     -4216.688          37.250  
  21899893.677    21899895.247    91148319.229 6     -3279.584          40.000  
                                                                
  23241702.763    23241701.233   122135973.716 3     -1517.926          21.750  
  23241705.323    23241704.413    95170898.152 3     -1182.688          21.750  
                                                                
  20098772.441    20098772.011   107364016.069 7     -3551.866          45.500  
  20098778.891    20098780.801    83505348.397 7     -2762.578          42.000  
                                                                
  22456233.491    22456232.621   118008289.885 5     -3345.932          33.750  
  22456235.801    22456235.351    91954515.297 5     -2607.187          33.750  
                                                                
  23799589.927    23799592.117   127177777.741 5     -5584.443          35.250  
  23799609.597    23799606.287    98916040.404 5     -4343.446          34.500  
                                                                
  23014419.443    23014419.013   120941580.401 5     -4316.620          31.000  
  23014426.843    23014425.823    94240191.599 5     -3363.580          31.000  
  23014428.873    90313514.971 8     -3223.437          50.250  
  20638585.792    20638585.662   110208896.664 7       866.831          43.500  
  20638594.352    20638593.222    85718025.612 7       674.244          43.500  
                                                                
  23429630.172    23429629.652   123123545.346 4      2396.719          28.000  
                  23429633.062    95940422.283 4      1867.641          28.000  
                                                                
  19241712.611    19241712.721   102713560.885 8     -1613.454          53.250  
  19241719.191    19241719.381    79888325.605 7     -1254.899          47.750  
                                                                
  20491732.031    20491731.641   107684772.051 7     -2357.571          43.750  
  20491732.011    20491732.051    83910213.810 7     -1837.070          43.750  
                                                                
  21714074.771    21714073.611   114108236.219 6      1093.528          38.750  
                  21714075.131    88915511.248 6       852.120          38.750  
                                                                
  21395851.046    21395851.926   114453379.903 7      1876.555          43.750  
  21395858.266    21395860.726    89019292.425 5      1459.498          32.250  
                                                                
  22042032.418    22042028.148   117620515.469 6       576.338          38.000  
  22042035.248    22042036.748    91482626.907 5       448.275          30.500  
                                                                
 14 10 17  8  0  0.0000000  0 16G 3R 7R 5R21G 5R12G31R11G25R13G16R22-0.000291980
                                G29G21R23R 6
  21393048.499    21393047.559   112421229.627 4      1356.896          27.000  
                  21393049.489    87600960.611 4      1057.206          27.000  
                                                                
  23440251.872    23440246.072   125477495.720 5      3009.710          31.000  
  23440373.712                                                                  
                                                                
  23326811.234    23326827.104   124695216.610 5     -3045.645          32.250  
                                  96985194.997       -2368.812                  
                                                                
  21903818.256    21903828.446   117211780.307 6     -4217.462          36.250  
  21903837.646    21903835.466    91164719.873 6     -3280.344          40.500  
                                                                
  23243145.475    23243147.035   122143572.930 3     -1521.167          21.750  
  23243150.915    23243149.095    95176819.639 3     -1185.241          21.750  
                                                                
  20102097.853    20102098.493   107381786.359 7     -3555.789          45.500  
  20102105.103    20102107.313    83519169.725 7     -2765.612          42.250  
                                                                
  22459417.949    22459417.779   118025026.467 5     -3348.250          34.250  
  22459420.659    22459420.319    91967556.750 5     -2609.076          34.250  
                                                                
  23804817.986    23804816.596   127205701.894 6     -5584.552          37.000  
  23804832.466    23804833.306    98937760.155 5     -4343.455          35.750  
                                                                
  23018527.310    23018527.390   120963167.998 5     -4317.880          31.000  
  23018534.580    23018534.010    94257013.084 5     -3364.551          31.000  
  23018536.950    90329635.578 8     -3224.375          50.500  
  20637776.413    20637775.273   110204574.585 7       862.612          43.000  
  20637784.633    20637783.753    85714663.987 7       670.923          43.000  
                                                                
  23427350.538    23427349.958   123111565.677 4      2395.752          28.750  
                  23427351.808    95931087.481 4      1866.830          28.750  
                                                                
  19243225.219    19243225.429   102721635.770 8     -1615.971          53.250  
  19243232.119    19243231.699    79894606.065 7     -1256.843          47.750  
                                                                
  20493976.149    20493975.559   107696565.764 7     -2359.402          43.500  
  20493976.149    20493976.139    83919403.706 7     -1838.506          43.500  
                                                                
  21713035.552    21713034.562   114102775.121 6      1091.499          38.750  
                  21713036.122    88911255.841 6       850.568          38.750  
                                                                
  21394096.966    21394098.466   114444001.985 7      1874.926          43.000  
  21394113.856    21394108.696    89011998.507 5      1458.227          32.000  
                                                                
  22041488.364    22041491.534   117617645.329 6       572.334          37.250  
  22041494.494    22041498.694    91480394.582 5       445.283          31.750  
                                                                
 14 10 17  8  0  5.0000000  0 16G 3R 7R 5R21G 5R12G31R11G25R13G16R22-0.000289132
                                G29G21R23R 6
  21391759.481    21391755.961   112414451.884 4      1354.780          27.000  
                  21391760.811    87595679.256 4      1055.664          27.000  
                                                                
  23437432.288    23437434.628   125462448.916 4      3009.354          29.000  
  23437539.228                                                                  
                                                                
  23329677.148    23329675.768   124710453.488 5     -3048.537          32.000  
                                  96997045.642       -2370.988                  
                                                                
  21907768.954    21907761.854   117232869.321 5     -4217.917          35.750  
  21907774.344    21907775.974    91181122.352 6     -3280.646          40.000  
                                                                
  23244596.189    23244597.079   122151187.511 3     -1524.255          22.250  
  23244598.769    23244599.119    95182753.000 3     -1187.779          22.250  
                                                                
  20105428.341    20105428.231   107399574.813 7     -3559.136          45.500  
  20105436.161    20105437.571    83533005.168 7     -2768.181          42.000  
                                                                
  22462605.397    22462604.027   118041772.753 5     -3349.902          34.500  
  22462607.887    22462606.727    91980605.819 5     -2610.222          34.500  
                                                                
  23810044.943    23810042.783   127233625.849 6     -5584.406          40.250  
  23810060.753    23810058.863    98959478.756 6     -4343.384          36.250  
                                                                
  23022636.149    23022635.519   120984760.576 5     -4318.627          30.500  
  23022643.429    23022642.649    94273838.438 5     -3365.250          30.500  
  23022646.029    90345759.860 8     -3225.025          51.500  
  20636971.770    20636971.000   110200272.382 7       858.661          43.000  
  20636978.590    20636978.430    85711317.837 7       667.816          42.750  
                                                                
  23425071.848    23425069.878   123099589.617 4      2395.202          28.500  
                  23425072.668    95921755.504 4      1866.334          28.500  
                                                                
  19244740.736    19244740.336   102729722.026 8     -1618.035          53.250  
  19244746.666    19244746.706    79900895.382 8     -1258.464          48.000  
                                                                
  20496221.672    20496221.432   107708367.055 7     -2360.664          43.500  
  20496222.522    20496221.922    83928599.515 7     -1839.463          43.500  
                                                                
  21711997.551    21711997.041   114097322.776 6      1089.965          39.500  
                  21711998.781    88907007.261 6       849.325          39.500  
                                                                
  21392346.355    21392347.485   114434631.419 7      1873.670          44.250  
  21392357.985    21392359.475    89004710.319 5      1457.285          32.500  
                                                                
  22040961.584    22040958.464   117614794.283 6       568.664          38.250  
  22040968.164    22040964.654    91478177.123 5       442.352          31.750  
                                                                
 14 10 17  8  0 10.0000000  0 16G 3R 7R 5R21G 5R12G31R11G25R13G16R22-0.000286287
                                G29G21R23R 6
  21390471.429    21390470.769   112407685.119 4      1351.936          26.000  
                  21390472.759    87590406.468 4      1053.521          26.000  
                                                                
  23434617.273    23434622.833   125447405.747 4      3007.844          28.250  
  23434733.683                                                                  
                                                                
  23332529.583    23332525.753   124725706.832 4     -3052.259          29.250  
                                  97008909.186       -2373.925                  
                                                                
  21911708.704    21911710.674   117253959.990 6     -4218.728          37.000  
  21911717.204    21911717.844    91197526.158 6     -3281.193          40.500  
                                                                
  23246047.598    23246048.078   122158816.619 3     -1527.538          22.500  
  23246048.158    23246049.718    95188697.802 3     -1190.202          22.500  
                                                                
  20108761.952    20108761.892   107417380.753 7     -3563.164          45.500  
  20108769.142    20108769.782    83546854.217 6     -2771.321          41.750  
                                                                
  22465794.190    22465793.620   118058528.045 5     -3352.237          34.250  
  22465795.020    22465795.360    91993661.870 5     -2612.105          34.250  
                                                                
  23815268.749    23815268.759   127261548.901 6     -5584.850          40.500  
  23815283.609    23815285.239    98981196.654 5     -4343.759          34.500  
                                                                
  23026746.231    23026746.211   121006357.464 4     -4320.073          29.500  
  23026752.931    23026752.661    94290667.187 4     -3366.254          29.500  
  23026755.901    90361887.380 8     -3226.039          51.500  
  20636167.235    20636168.225   110195989.554 7       854.407          43.000  
  20636176.845    20636176.775    85707986.751 7       664.584          43.250  
                                                                
  23422792.301    23422792.121   123087616.510 4      2394.023          27.500  
                  23422795.681    95912425.810 4      1865.481          27.500  
                                                                
  19246257.215    19246256.935   102737818.762 8     -1620.679          53.500  
  19246263.025    19246263.425    79907192.833 7     -1260.529          47.750  
                                                                
  20498468.524    20498468.614   107720175.261 7     -2362.608          44.000  
  20498469.584    20498468.914    83937800.708 7     -1840.980          44.000  
                                                                
  21710962.472    21710960.942   114091878.510 6      1087.782          39.500  
                  21710962.372    88902764.986 6       847.635          39.500  
                                                                
  21390595.309    21390596.889   114425267.190 7      1871.881          44.500  
  21390606.329    21390606.849    88997427.052 5      1455.998          31.750  
                                                                
  22040427.129    22040424.849   117611961.574 6       564.567          37.750  
  22040429.059    22040430.989    91475973.928 5       438.974          31.500  
                                                                
 14 10 17  8  0 15.0000000  0 16G 3R 7R 5R21G 5R12G31R11G25R13G16R22-0.000283440
                                G29G21R23R 6
  21389186.239    21389184.679   112400931.268 4      1349.954          25.500  
                  21389187.249    87585143.721 4      1051.918          25.500  
                                                                
  23431801.203    23431813.163   125432367.523 4      3007.762          28.250  
  23431878.023                                                                  
                                                                
  23335306.387    23335375.967   124740978.733 4     -3055.535          29.750  
  23335287.977    23335289.767    97020787.173 5     -2376.479          32.000  
                                                                
  21915653.679    21915654.499   117275054.235 6     -4218.809          40.000  
  21915658.689    21915660.349    91213932.788 6     -3281.278          40.750  
                                                                
  23247501.640    23247500.940   122166462.390 3     -1530.517          22.500  
  23247506.770    23247506.350    95194655.509 3     -1192.510          22.500  
                                                                
  20112099.520    20112098.330   107435206.121 7     -3566.535          45.500  
  20112108.430    20112107.550    83560718.379 6     -2773.921          41.750  
                                                                
  22468983.601    22468983.491   118075294.256 5     -3353.971          34.250  
  22468987.371    22468986.301    92006726.439 5     -2613.480          34.250  
                                                                
  23820494.779    23820493.279   127289472.992 6     -5584.446          39.000  
  23820509.509    23820509.779    99002915.372 5     -4343.389          34.750  
                                                                
  23030857.246    23030857.386   121027960.618 5     -4320.878          30.750  
  23030864.776    23030863.636    94307500.752 5     -3366.951          30.750  
  23030866.526    90378019.558 8     -3226.678          51.000  
  20635369.184    20635369.814   110191728.023 7       850.508          43.000  
  20635377.744    20635378.454    85704672.241 7       661.545          44.000  
                                                                
  23420516.448    23420514.588   123075648.295 4      2393.584          28.250  
                  23420517.128    95903099.956 4      1865.196          28.250  
                                                                
  19247776.591    19247776.221   102745927.959 8     -1622.654          53.500  
  19247782.021    19247782.501    79913499.983 8     -1262.052          48.000  
                                                                
  20500717.471    20500717.251   107731992.320 7     -2363.891          44.000  
  20500718.151    20500717.611    83947008.799 7     -1841.991          44.000  
                                                                
  21709927.925    21709926.835   114086444.276 6      1086.288          39.000  
                  21709928.615    88898530.522 6       846.491          39.000  
                                                                
  21388847.975    21388847.525   114415911.587 7      1870.685          44.250  
  21388858.795    21388859.165    88990150.472 5      1454.993          31.500  
                                                                
  22039901.362    22039897.672   117609149.184 6       560.756          36.250  
  22039911.142    22039905.812    91473786.569 4       436.106          29.250  
                                                                
 14 10 17  8  0 20.0000000  0 16G 3R 7R 5R21G 5R12G31R11G25R13G16R22-0.000280595
                                G29G21R23R 6
  21387902.642    21387902.452   112394189.718 4      1347.319          26.500  
                  21387904.082    87579890.582 4      1049.806          26.500  
                                                                
  23429008.015    23429005.085   125417334.745 4      3006.208          27.500  
  23429044.765                                                                  
                                                                
  23338174.540    23338229.410   124756268.457 4     -3060.104          28.750  
  23338150.280    23338146.130    97032679.028 5     -2379.921          30.750  
                                                                
  21919592.829    21919593.089   117296151.489 6     -4219.534          39.750  
  21919602.639    21919601.829    91230341.741 6     -3281.924          41.000  
                                                                
  23248960.849    23248960.099   122174123.982 3     -1533.693          22.250  
  23248964.689    23248962.179    95200625.580 3     -1195.115          22.250  
                                                                
  20115440.689    20115439.469   107453050.323 7     -3570.531          45.750  
  20115447.069    20115447.739    83574597.185 6     -2777.097          41.250  
                                                                
  22472176.004    22472176.474   118092070.791 5     -3356.104          33.750  
  22472178.324    22472178.294    92019799.031 5     -2615.090          33.750  
                                                                
  23825720.029    23825720.089   127317397.449 6     -5584.724          40.000  
  23825732.879    23825734.429    99024634.374 5     -4343.638          33.250  
                                                                
  23034969.685    23034967.985   121049569.287 4     -4322.028          29.750  
  23034977.225    23034975.645    94324338.644 4     -3367.864          29.750  
  23034978.635    90394155.887 8     -3227.476          51.000  
  20634576.257    20634575.917   110187487.240 7       846.395          43.500  
  20634583.567    20634584.017    85701373.857 7       658.239          43.750  
                                                                
  23418238.451    23418236.801   123063684.311 4      2392.691          27.250  
                  23418240.291    95893777.361 4      1864.467          27.250  
                                                                
  19249297.579    19249297.519   102754049.009 8     -1625.136          53.500  
  19249303.709    19249303.759    79919816.354 7     -1264.028          47.750  
                                                                
  20502968.007    20502967.757   107743817.549 7     -2365.623          44.000  
  20502968.227    20502968.117    83956223.251 7     -1843.356          44.000  
                                                                
  21708895.403    21708894.063   114081019.394 6      1084.279          39.000  
                  21708896.423    88894303.352 6       844.895          39.000  
                                                                
  21387099.471    21387100.051   114406563.768 7      1869.044          43.750  
  21387110.171    21387111.571    88982879.947 4      1453.689          29.750  
                                                                
  22039373.931    22039374.691   117606356.438 6       556.896          37.750  
  22039386.011    22039381.071    91471614.473 4       433.066          29.000  
                                                                
 14 10 17  8  0 25.0000000  0 16G 3R 7R 5R21G 5R12G31R11G25R13G16R22-0.000277750
                                G29G21R23R 6
  21386622.636    21386621.986   112387458.932 4      1345.218          28.000  
                  21386623.476    87574645.848 4      1048.224          28.000  
                                                                
  23426202.036    23426202.376   125402305.472 4      3005.396          28.500  
  23426285.726                                                                  
                                                                
  23341092.669    23341100.509   124771574.365 4     -3062.939          28.250  
                                  97044583.479       -2382.210                  
                                                                
  21923537.510    21923537.880   117317250.151 6     -4219.611          39.500  
  21923545.100    21923545.180    91246751.799 6     -3281.859          41.000  
                                                                
  23250423.741    23250421.121   122181800.030 3     -1536.566          23.000  
  23250425.471    23250425.021    95206606.902 3     -1197.454          23.000  
                                                                
  20118784.113    20118783.003   107470911.708 7     -3573.809          45.750  
  20118792.233    20118791.983    83588489.363 6     -2779.570          41.750  
                                                                
  22475370.401    22475370.311   118108856.100 5     -3357.727          34.250  
  22475372.891    22475373.011    92032878.466 5     -2616.364          34.250  
                                                                
  23830943.418    23830943.278   127345320.618 6     -5584.530          37.750  
  23830961.408    23830959.728    99046352.355 5     -4343.441          31.500  
                                                                
  23039081.066    23039081.606   121071181.987 4     -4322.749          29.750  
  23039089.306    23039087.026    94341179.692 4     -3368.481          29.750  
  23039091.316    90410295.219 8     -3228.064          50.750  
  20633784.310    20633784.530   110183265.557 7       842.578          43.500  
  20633794.030    20633793.170    85698090.324 7       655.371          43.500  
                                                                
  23415961.737    23415960.897   123051723.079 4      2392.135          27.500  
                  23415963.137    95884456.941 4      1864.101          27.500  
                                                                
  19250821.684    19250820.834   102762180.333 8     -1627.146          53.250  
  19250826.394    19250827.224    79926140.715 7     -1265.558          47.000  
                                                                
  20505219.202    20505219.192   107755649.455 7     -2366.891          43.750  
  20505220.292    20505219.632    83965442.914 7     -1844.330          43.750  
                                                                
  21707864.600    21707863.480   114075602.366 6      1082.784          38.250  
                  21707865.670    88890082.295 6       843.744          38.250  
                                                                
  21385354.418    21385354.248   114397222.236 7      1867.805          43.250  
  21385366.948    21385362.768    88975614.315 5      1452.672          30.250  
                                                                
  22038857.284    22038854.604   117603581.704 6       553.466          38.250  
  22038862.374    22038861.744    91469456.378 5       430.351          30.000  
                                                                
 14 10 17  8  0 30.0000000  0 16G 3R 7R 5R21G 5R12G31R11G25R13G16R22-0.000274905
                                G29G21R23R 6
  21385344.531    21385344.111   112380739.973 4      1342.490          28.000  
                  21385345.621    87569410.260 4      1046.098          28.000  
                                                                
  23423400.835    23423391.445   125387280.467 5      3004.226          30.750  
                                                                                
                                                                
  23343976.858    23343973.558   124786898.211 5     -3066.960          33.000  
                                  97056501.891       -2385.526                  
                                                                
  21927483.264    21927483.634   117338351.343 6     -4220.936          39.250  
  21927488.554    21927488.744    91263163.826 6     -3282.951          41.250  
                                                                
  23251887.582    23251886.552   122189491.427 4     -1540.202          25.000  
  23251887.492    23251887.062    95212600.213 4     -1200.081          25.000  
                                                                
  20122130.369    20122129.699   107488791.251 7     -3577.963          45.500  
  20122137.099    20122138.829    83602395.658 6     -2782.800          41.250  
                                                                
  22478566.314    22478566.324   118125651.174 5     -3360.340          34.250  
  22478569.884    22478568.754    92045965.526 5     -2618.419          34.250  
                                                                
  23836170.884    23836169.294   127373243.622 6     -5585.458          39.000  
  23836184.944    23836186.854    99068072.277 5     -4344.710          32.500  
                                                                
  23043195.382    23043194.752   121092799.812 5     -4324.483          30.000  
  23043202.992    23043202.612    94358024.727 5     -3369.750          30.000  
  23043205.512    90426438.360 8     -3229.288          50.500  
  20632997.895    20632998.665   110179064.068 7       837.996          44.250  
  20633005.055    20633006.725    85694822.503 7       651.783          43.000  
                                                                
  23413687.344    23413684.854   123039765.609 4      2390.864          26.500  
                  23413688.334    95875139.398 4      1862.946          26.500  
                                                                
  19252346.420    19252346.160   102770322.936 8     -1630.018          53.250  
  19252352.300    19252352.600    79932473.847 7     -1267.744          47.250  
                                                                
  20507472.460    20507472.130   107767489.064 7     -2369.026          44.000  
  20507473.190    20507472.440    83974668.579 7     -1845.965          44.000  
                                                                
  21706835.341    21706834.191   114070194.217 6      1080.407          38.250  
                  21706836.041    88885868.153 6       841.890          38.250  
                                                                
  21383609.194    21383609.164   114387888.150 7      1865.730          43.500  
  21383620.284    21383617.624    88968354.496 5      1451.170          30.250  
                                                                
  22038334.359    22038337.289   117600826.262 5       548.813          35.250  
  22038347.029    22038348.229    91467313.261 4       426.770          29.250  
                                                                
 14 10 17  8  0 35.0000000  0 16G 3R 7R 5R21G 5R12G31R11G25R13G16R22-0.000272061
                                G29G21R23R 6
  21384068.920    21384066.110   112374035.257 4      1339.608          27.500  
                  21384068.760    87564185.816 4      1043.919          27.500  
                                                                
  23420589.738    23420587.498   125372262.452 5      3002.954          31.750  
                                                                                
                                                                
  23346847.716    23346844.826   124802241.235 5     -3070.672          35.750  
                                  97068435.160       -2388.455                  
                                                                
  21931422.150    21931425.200   117359457.391 6     -4221.555          37.750  
  21931431.850    21931433.340    91279579.603 6     -3283.426          41.500  
                                                                
  23253355.084    23253353.954   122197200.686 4     -1543.518          25.000  
  23253355.634    23253354.204    95218607.378 4     -1202.885          25.000  
                                                                
  20125481.050    20125480.590   107506691.455 7     -3582.002          45.500  
  20125488.620    20125489.990    83616318.032 6     -2785.993          41.750  
                                                                
  22481764.347    22481764.437   118142458.394 5     -3362.458          34.000  
  22481766.957    22481766.017    92059062.043 5     -2620.011          34.000  
                                                                
  23841395.236    23841395.916   127401168.870 6     -5585.328          37.750  
  23841410.106    23841412.326    99089791.818 5     -4344.169          32.250  
                                                                
  23047311.901    23047310.551   121114425.043 4     -4325.771          29.500  
  23047318.591    23047317.571    94374875.508 4     -3370.870          29.500  
  23047320.401    90442587.033 8     -3230.365          50.250  
  20632216.417    20632216.087   110174885.230 7       833.610          44.250  
  20632223.277    20632224.187    85691572.295 7       648.388          42.500  
                                                                
  23411410.810    23411411.230   123027814.290 4      2389.885          27.000  
                  23411414.320    95865826.681 4      1862.094          27.000  
                                                                
  19253875.032    19253874.392   102778479.323 8     -1632.520          53.250  
  19253880.432    19253880.652    79938817.697 7     -1269.712          47.000  
                                                                
  20509727.418    20509727.118   107779338.719 7     -2370.848          44.250  
  20509728.338    20509727.458    83983902.069 7     -1847.419          44.250  
                                                                
  21705808.692    21705807.642   114064797.313 6      1078.413          38.250  
                  21705809.152    88881662.783 6       840.342          38.250  
                                                                
  21381864.963    21381866.063   114378563.758 7      1863.915          42.250  
  21381872.713    21381875.663    88961102.209 5      1449.824          32.000  
                                                                
  22037820.922    22037822.562   117598092.289 5       544.831          34.500  
  22037832.782    22037834.872    91465186.883 5       423.643          30.750  
                                                                
 14 10 17  8  0 40.0000000  0 16G 3R 7R 5R21G 5R12G31R11G25R13G16R22-0.000269216
                                G29G21R23R 6
  21382794.353    21382791.903   112367343.085 4      1337.050          27.000  
                  21382795.883    87558971.149 4      1041.934          27.000  
                                                                
  23417786.900    23417782.230   125357249.514 5      3002.033          32.000  
                                                                                
                                                                
  23349720.138    23349719.078   124817602.240 5     -3074.159          35.750  
  23349707.848                    97080382.528       -2390.974                  
                                                                
  21935369.856    21935366.966   117380566.649 6     -4222.128          37.750  
  21935377.726    21935377.656    91295997.883 6     -3283.962          41.750  
                                                                
  23254822.757    23254824.237   122204926.079 4     -1546.788          24.750  
  23254824.687    23254824.947    95224627.206 4     -1205.131          24.750  
                                                                
  20128835.005    20128836.065   107524610.651 7     -3585.875          45.750  
  20128844.655    20128844.565    83630255.166 7     -2789.017          42.250  
                                                                
  22484964.680    22484965.200   118159276.132 5     -3364.680          33.250  
  22484966.350    22484966.110    92072166.732 5     -2621.825          33.250  
                                                                
  23846621.856    23846620.336   127429094.660 6     -5585.299          38.000  
  23846632.456    23846637.176    99111511.799 4     -4344.210          29.500  
                                                                
  23051425.866    23051425.406   121136056.025 4     -4327.042          28.750  
  23051434.686    23051433.576    94391730.843 4     -3371.715          28.750  
  23051436.886    90458740.041 8     -3231.213          50.750  
  20631437.151    20631436.651   110170727.364 7       829.359          44.000  
  20631445.241    20631445.331    85688338.392 7       645.085          42.750  
                                                                
  23409138.868    23409138.858   123015867.430 4      2388.782          26.500  
                  23409140.438    95856517.476 4      1861.418          26.500  
                                                                
  19255405.043    19255404.733   102786647.736 8     -1634.994          53.500  
  19255410.363    19255410.693    79945170.902 7     -1271.658          47.000  
                                                                
  20511983.776    20511983.486   107791196.781 7     -2372.611          44.500  
  20511984.756    20511983.916    83993142.116 7     -1848.789          44.500  
                                                                
  21704782.752    21704782.302   114059410.016 6      1076.366          38.250  
                  21704783.812    88877464.895 6       838.718          38.250  
                                                                
  21380122.356    21380124.046   114369247.496 7      1862.341          42.500  
  21380131.456    21380134.766    88953856.220 5      1448.516          30.500  
                                                                
  22037316.476    22037318.356   117595378.295 6       540.509          36.250  
  22037327.266    22037326.286    91463076.010 5       420.373          31.750  
                                                                
 14 10 17  8  0 45.0000000  0 16G 3R 7R 5R21G 5R12G31R11G25R13G16R22-0.000266373
                                G29G21R23R 6
  21381523.155    21381521.105   112360663.109 4      1334.714          26.250  
                  21381524.595    87553765.954 4      1039.980          26.250  
                                                                
  23414978.301    23414980.491   125342241.624 5      3000.844          32.250  
  23415108.461                                                                  
                                                                
  23352591.062    23352594.712   124832981.083 5     -3077.777          33.750  
  23352606.682                    97092344.536       -2394.090                  
                                                                
  21939318.738    21939315.748   117401678.864 6     -4222.912          39.000  
  21939324.488    21939322.968    91312418.431 6     -3284.438          41.500  
                                                                
  23256295.572    23256295.382   122212667.268 4     -1549.686          24.500  
  23256298.102    23256297.282    95230659.293 4     -1207.523          24.500  
                                                                
  20132194.261    20132193.821   107542548.406 7     -3589.499          45.500  
  20132202.711    20132202.891    83644206.739 7     -2791.843          42.750  
                                                                
  22488167.078    22488167.138   118176103.951 5     -3366.583          33.000  
  22488171.018    22488168.678    92085279.311 5     -2623.277          33.000  
                                                                
  23851848.438    23851848.408   127457020.546 6     -5585.216          40.000  
  23851862.458    23851863.298    99133232.016 5     -4343.870          30.000  
                                                                
  23055543.881    23055544.021   121157692.512 4     -4327.997          29.250  
  23055550.901    23055551.801    94408590.380 4     -3372.585          29.250  
  23055554.231    90474897.056 8     -3232.042          51.500  
  20630662.404    20630662.364   110166589.956 7       825.276          44.500  
  20630671.194    20630670.924    85685120.406 7       641.872          43.250  
                                                                
  23406865.299    23406866.059   123003924.755 4      2388.002          26.750  
                  23406868.019    95847211.484 4      1860.848          26.750  
                                                                
  19256937.577    19256937.027   102794827.881 8     -1637.295          53.250  
  19256943.337    19256942.907    79951533.233 7     -1273.466          47.000  
                                                                
  20514241.297    20514241.447   107803062.934 7     -2374.094          44.750  
  20514242.517    20514242.147    84002388.458 7     -1849.949          44.750  
                                                                
  21703760.204    21703759.094   114054032.019 6      1074.585          39.000  
                  21703760.324    88873274.242 6       837.317          39.000  
                                                                
  21378382.808    21378383.448   114359938.869 7      1860.944          42.250  
  21378393.018    21378394.578    88946616.215 5      1447.424          33.750  
                                                                
  22036817.484    22036809.324   117592683.928 5       536.624          34.500  
  22036816.814    22036818.504    91460980.387 5       417.355          30.750  
                                                                
 14 10 17  8  0 50.0000000  0 16G 3R 7R 5R21G 5R12G31R11G25R13G16R22-0.000263529
                                G29G21R23R 6
  21380253.530    21380253.240   112353995.146 4      1332.397          25.500  
                  21380255.330    87548570.117 4      1038.257          25.500  
                                                                
  23412169.605    23412180.305   125327238.411 5      3000.043          33.250  
  23412249.585                                                                  
                                                                
  23355476.459    23355475.869   124848377.255 6     -3081.254          36.500  
  23355477.799                    97104319.118       -2396.650                  
                                                                
  21943263.692    21943264.162   117422793.487 6     -4223.197          39.750  
  21943269.872    21943269.602    91328840.895 7     -3284.709          42.250  
                                                                
  23257772.961    23257774.431   122220423.945 4     -1552.703          24.750  
  23257772.741    23257771.121    95236703.440 4     -1209.973          24.750  
                                                                
  20135555.369    20135555.589   107560504.437 7     -3593.125          46.000  
  20135562.439    20135563.919    83658172.518 7     -2794.663          42.750  
                                                                
  22491371.970    22491371.720   118192941.643 5     -3368.606          33.250  
  22491374.310    22491373.370    92098399.579 5     -2624.888          33.250  
                                                                
  23857074.612    23857073.062   127484946.346 6     -5585.377          39.750  
  23857089.162    23857089.472    99154952.014 4     -4344.523          28.750  
                                                                
  23059662.520    23059662.810   121179334.017 5     -4328.826          31.750  
  23059670.390    23059669.840    94425453.866 5     -3372.983          31.750  
  23059672.420    90491057.913 8     -3232.505          50.750  
  20629893.310    20629891.820   110162472.920 7       821.344          45.000  
  20629900.140    20629900.110    85681918.267 7       638.883          42.750  
                                                                
  23404594.629    23404594.159   122991985.930 4      2387.314          27.250  
                  23404596.219    95837908.513 4      1860.220          27.250  
                                                                
  19258471.564    19258471.394   102803019.319 8     -1639.416          53.000  
  19258477.514    19258477.434    79957904.349 7     -1275.086          47.000  
                                                                
  20516500.824    20516501.194   107814936.820 7     -2375.568          45.000  
  20516502.264    20516501.804    84011640.820 7     -1851.063          45.000  
                                                                
  21702737.903    21702737.033   114048662.947 6      1072.889          38.500  
                  21702738.843    88869090.565 6       836.035          38.500  
                                                                
  21376643.685    21376645.005   114350637.816 7      1859.501          42.750  
  21376661.575    21376656.285    88939382.091 5      1446.314          31.750  
                                                                
  22036310.727    22036310.217   117590008.718 5       533.170          35.250  
  22036318.517    22036317.397    91458899.749 5       414.750          31.250  
                                                                
 14 10 17  8  0 55.0000000  0 16G 3R 7R 5R21G 5R12G31R11G25R13G16R22-0.000260686
                                G29G21R23R 6
  21378987.930    21378986.280   112347339.351 4      1330.072          25.750  
                  21378988.210    87543383.806 4      1036.355          25.750  
                                                                
  23409372.662    23409375.282   125312239.760 5      2999.339          33.750  
  23409382.912                                                                  
                                                                
  23358348.015    23358353.975   124863790.716 5     -3084.241          32.750  
  23358364.265                    97116307.261       -2398.888                  
                                                                
  21947208.004    21947209.964   117443910.871 6     -4223.657          40.500  
  21947216.374    21947215.914    91345265.498 7     -3285.116          42.750  
                                                                
  23259252.491    23259252.551   122228196.370 3     -1555.955          23.750  
  23259251.561    23259251.691    95242759.848 3     -1212.343          23.750  
                                                                
  20138920.731    20138920.431   107578478.918 7     -3596.684          45.500  
  20138927.331    20138928.791    83672152.670 7     -2797.416          43.000  
                                                                
  22494577.735    22494577.815   118209789.353 5     -3370.453          34.000  
  22494579.485    22494578.195    92111527.634 5     -2626.355          34.000  
                                                                
  23862297.719    23862297.979   127512872.162 6     -5585.373          36.250  
  23862316.349    23862316.119    99176673.225 5     -4344.351          30.000  
                                                                
  23063782.055    23063782.055   121200980.867 5     -4329.929          31.250  
  23063789.425    23063789.495    94442321.512 5     -3374.001          31.250  
  23063791.085    90507222.754 8     -3233.429          49.750  
  20629123.299    20629124.399   110158376.435 7       817.249          44.750  
  20629132.339    20629132.789    85678732.121 7       635.677          43.500  
                                                                
  23402323.776    23402322.706   122980051.267 4      2386.606          27.000  
                  23402325.516    95828608.827 4      1859.731          27.000  
                                                                
  19260008.614    19260008.024   102811222.375 8     -1641.778          53.000  
  19260013.694    19260014.234    79964284.491 7     -1276.932          47.000  
                                                                
  20518762.491    20518762.161   107826818.702 7     -2377.179          45.500  
  20518763.231    20518763.211    84020899.430 7     -1852.348          45.500  
                                                                
  21701717.787    21701716.907   114043303.115 6      1071.067          38.000  
                  21701718.717    88864914.062 6       834.598          38.000  
                                                                
  21374905.839    21374908.119   114341344.472 7      1857.924          42.250  
  21374915.869    21374920.099    88932153.947 5      1445.218          34.250  
                                                                
  22035810.616    22035814.476   117587353.165 6       529.247          37.750  
  22035819.476    22035818.046    91456834.347 5       411.750          31.000  
                                                                
 14 10 17  8  1  0.0000000  0 16G 3R 7R 5R21G 5R12G31R11G25R13G16R22-0.000257843
                                G29G21R23R 6
  21377723.627    21377720.517   112340696.557 4      1327.579          26.000  
                  21377724.387    87538207.624 4      1034.453          26.000  
                                                                
  23406570.567    23406575.527   125297247.112 5      2998.269          33.500  
  23406601.097                                                                  
                                                                
  23361213.965    23361247.555   124879221.675 4     -3088.201          25.000  
  23361236.535                    97128311.880       -2401.679                  
                                                                
  21951155.689    21951156.599   117465031.722 6     -4224.276          40.000  
  21951161.289    21951162.469    91361692.820 7     -3285.661          42.250  
                                                                
  23260732.452    23260734.982   122235985.312 3     -1559.099          23.750  
  23260735.092    23260733.662    95248829.153 3     -1214.738          23.750  
                                                                
  20142288.978    20142288.548   107596472.708 7     -3600.309          45.750  
  20142296.408    20142297.108    83686147.824 7     -2800.212          42.500  
                                                                
  22497784.987    22497785.307   118226647.808 5     -3372.458          32.750  
  22497787.657    22497786.537    92124664.094 5     -2627.828          32.750  
                                                                
  23867525.455    23867525.735   127540798.810 6     -5585.114          36.500  
  23867544.545    23867541.925    99198393.932 5     -4344.036          33.750  
                                                                
  23067902.298    23067902.488   121222633.837 5     -4330.791          31.250  
  23067909.898    23067910.408    94459193.938 5     -3374.677          31.250  
  23067911.728    90523392.164 8     -3233.977          49.750  
  20628360.010    20628361.350   110154301.403 7       813.221          45.250  
  20628369.610    20628369.550    85675562.656 7       632.516          43.250  
                                                                
  23400051.670    23400051.620   122968121.574 4      2385.931          26.500  
                  23400057.540    95819312.950 4      1859.260          26.500  
                                                                
  19261547.974    19261547.064   102819437.812 8     -1643.944          52.500  
  19261553.354    19261553.244    79970674.278 7     -1278.607          47.000  
                                                                
  20521025.196    20521024.856   107838709.348 7     -2378.662          44.750  
  20521026.346    20521025.926    84030164.857 7     -1853.504          44.750  
                                                                
  21700700.723    21700699.333   114037953.303 6      1069.300          38.250  
                  21700700.963    88860745.386 6       833.281          38.250  
                                                                
  21373172.813    21373172.043   114332059.511 6      1856.374          41.500  
  21373183.953    21373181.953    88924932.257 5      1443.733          33.500  
                                                                
  22035319.262    22035319.072   117584718.019 6       525.195          38.250  
  22035324.252    22035327.932    91454784.803 5       408.440          30.000  
                                                                
 14 10 17  8  1  5.0000000  0 16G 3R 7R 5R21G 5R12G31R11G25R13G16R22-0.000255001
                                G29G21R23R 6
  21376460.167    21376460.247   112334066.279 4      1324.976          26.500  
                  21376461.317    87533041.143 4      1032.418          26.500  
                                                                
  23403769.112    23403773.532   125282259.346 5      2997.237          33.000  
  23403790.012                                                                  
                                                                
  23364141.423    23364139.843   124894668.754 4     -3091.649          28.250  
                                                                                
                                                                
  21955104.100    21955105.220   117486155.714 6     -4225.058          40.000  
  21955108.600    21955109.690    91378122.570 7     -3286.269          42.000  
                                                                
  23262217.330    23262217.810   122243790.194 3     -1562.538          22.750  
  23262218.880    23262219.270    95254910.875 3     -1217.564          22.750  
                                                                
  20145661.847    20145660.837   107614485.233 7     -3604.085          46.000  
  20145669.727    20145669.317    83700157.552 7     -2803.209          43.000  
                                                                
  22500995.401    22500994.241   118243516.481 5     -3374.481          32.500  
  22500998.121    22500996.851    92137808.495 5     -2629.539          32.500  
                                                                
  23872751.086    23872751.096   127568725.835 6     -5585.062          40.000  
  23872766.726    23872768.716    99220114.861 5     -4344.003          34.250  
                                                                
  23072023.470    23072023.580   121244292.416 5     -4332.033          32.750  
  23072031.850    23072031.090    94476070.734 5     -3375.548          32.750  
  23072033.280    90539565.714 8     -3234.969          49.500  
  20627602.533    20627601.773   110150247.102 7       809.051          45.250  
  20627609.163    20627610.333    85672409.315 7       629.321          43.250  
                                                                
  23397785.098    23397783.998   122956196.188 4      2384.903          25.500  
                  23397787.538    95810020.410 4      1858.412          25.500  
                                                                
  19263088.808    19263088.808   102827665.069 8     -1646.396          52.500  
  19263094.598    19263094.558    79977073.250 7     -1280.558          47.250  
                                                                
  20523289.202    20523289.352   107850608.227 7     -2380.356          45.000  
  20523290.342    20523289.972    84039436.697 7     -1854.830          45.000  
                                                                
  21699683.798    21699683.408   114032612.942 6      1067.316          39.500  
                  21699684.258    88856584.066 6       831.645          39.500  
                                                                
  21371438.196    21371438.266   114322782.530 6      1854.871          41.750  
  21371448.116    21371448.376    88917716.873 5      1442.591          35.000  
                                                                
  22034829.713    22034828.543   117582102.658 6       521.669          37.750  
  22034842.653    22034836.663    91452750.675 4       405.763          29.500  
                                                                
 14 10 17  8  1 10.0000000  0 16G 3R 7R 5R21G 5R12G31R11G25R13G16R22-0.000252159
                                G29G21R23R 6
  21375201.098    21375200.998   112327448.388 4      1322.460          26.500  
                  21375202.378    87527884.359 4      1030.413          26.500  
                                                                
  23400973.205    23400976.865   125267276.827 5      2996.215          33.500  
  23400993.335                                                                  
                                                                
  23367033.863    23367033.323   124910141.548 3     -3094.988          23.500  
                                  97152366.664       -2407.256                  
                                                                
  21959049.467    21959051.627   117507282.584 6     -4225.616          40.500  
  21959059.187    21959058.127    91394554.572 7     -3286.609          42.000  
                                                                
  23263706.714    23263707.484   122251610.955 3     -1565.501          22.750  
  23263708.684    23263707.004    95261004.976 3     -1219.883          22.750  
                                                                
  20149035.270    20149035.940   107632516.440 7     -3607.965          46.000  
  20149042.960    20149045.100    83714181.805 7     -2806.183          42.250  
                                                                
  22504207.117    22504207.327   118260395.381 5     -3376.613          32.500  
  22504209.707    22504208.877    92150960.858 5     -2631.008          32.500  
                                                                
  23877977.584    23877977.834   127596652.823 6     -5585.207          41.000  
  23877996.024    23877995.134    99241835.832 5     -4344.119          33.750  
                                                                
  23076146.620    23076146.070   121265956.487 5     -4333.239          32.000  
  23076153.560    23076154.240    94492951.810 5     -3376.549          32.000  
  23076156.270    90555743.419 8     -3235.836          50.250  
  20626846.879    20626846.679   110146213.644 7       804.716          44.250  
  20626854.729    20626854.939    85669272.176 7       625.905          42.750  
                                                                
  23395516.422    23395515.392   122944275.115 4      2383.851          25.250  
                  23395517.052    95800731.269 4      1857.473          25.250  
                                                                
  19264632.323    19264631.873   102835904.182 8     -1648.831          52.000  
  19264638.413    19264638.723    79983481.452 7     -1282.400          47.000  
                                                                
  20525555.662    20525555.092   107862515.306 7     -2382.149          44.500  
  20525555.862    20525555.852    84048714.940 7     -1856.230          44.500  
                                                                
  21698669.177    21698668.777   114027282.046 6      1065.377          38.500  
                  21698669.997    88852430.124 6       830.135          38.500  
                                                                
  21369703.648    21369705.098   114313513.375 6      1853.201          41.250  
  21369711.958    21369715.018    88910507.547 5      1441.482          33.250  
                                                                
  22034343.264    22034341.584   117579507.185 6       517.259          37.750  
  22034346.734    22034350.544    91450731.988 4       402.395          28.750  
                                                                
 14 10 17  8  1 15.0000000  0 16G 3R 7R 5R21G 5R12G31R11G25R13G16R22-0.000249316
                                G29G21R23R 6
  21373946.005    21373943.335   112320843.644 4      1319.605          26.000  
                  21373947.295    87522737.831 4      1028.328          26.000  
                                                                
  23398176.160    23398177.290   125252300.344 6      2994.754          36.250  
  23398185.500    23398188.750    97418446.631 3      2329.707          22.000  
                                                                
  23369905.359    23369932.249   124925627.286 4     -3099.122          25.750  
                                  97164414.564       -2410.435                  
                                                                
  21963000.513    21962999.763   117528413.032 6     -4226.368          40.750  
  21963007.193    21963007.283    91410989.390 7     -3287.208          42.000  
                                                                
  23265199.267    23265198.397   122259448.423 3     -1569.156          20.750  
  23265201.887    23265199.327    95267112.081 3     -1222.650          20.750  
                                                                
  20152413.490    20152414.290   107650566.914 7     -3612.039          45.500  
  20152423.580    20152423.930    83728221.065 7     -2809.342          43.000  
                                                                
  22507421.168    22507421.088   118277285.123 5     -3378.963          33.750  
  22507425.208    22507423.288    92164121.680 5     -2632.942          33.750  
                                                                
  23883204.091    23883204.121   127624581.083 6     -5585.663          41.500  
  23883224.811    23883216.961    99263560.775 4     -4344.375          25.750  
                                                                
  23080269.201    23080269.141   121287626.775 5     -4334.606          31.500  
  23080278.571    23080277.151    94509837.736 5     -3377.598          31.500  
  23080279.931    90571925.748 8     -3236.919          50.250  
  20626094.469    20626095.709   110142201.752 7       800.250          45.000  
  20626103.639    20626103.379    85666151.809 7       622.429          42.500  
                                                                
  23393248.450    23393246.930   122932359.210 4      2382.774          24.500  
                  23393249.940    95791446.196 4      1856.782          24.500  
                                                                
  19266177.669    19266177.429   102844155.732 8     -1651.527          52.000  
  19266184.189    19266184.139    79989899.309 7     -1284.494          47.250  
                                                                
  20527822.660    20527822.440   107874431.294 7     -2384.090          45.000  
  20527823.820    20527823.380    84058000.115 7     -1857.736          45.000  
                                                                
  21697657.069    21697656.179   114021961.327 6      1063.140          39.250  
                  21697657.569    88848284.107 6       828.409          39.250  
                                                                
  21367974.541    21367973.511   114304252.945 6      1851.333          40.750  
  21367984.311    21367984.661    88903304.958 5      1439.875          33.750  
                                                                
  22033859.950    22033859.830   117576932.236 6       512.887          39.000  
  22033868.620    22033869.070    91448729.258 4       398.860          29.000  
                                                                
 14 10 17  8  1 20.0000000  0 16G 3R 7R 5R21G 5R12G31R11G25R13G16R22-0.000246473
                                G29G21R23R 6
  21372691.584    21372688.304   112314252.140 4      1317.052          25.750  
                  21372692.284    87517601.581 4      1026.326          25.750  
                                                                
  23395385.164    23395381.764   125237329.810 5      2993.639          35.750  
  23395381.134    23395395.354    97406803.245 3      2328.718          23.500  
                                                                
  23372761.458    23372829.658   124941131.831 5     -3101.994          32.000  
                  23372727.958    97176474.318 4     -2412.532          28.250  
                                                                
  21966948.516    21966948.956   117549547.392 6     -4227.159          39.750  
  21966956.846    21966956.556    91427427.200 7     -3287.850          42.000  
                                                                
  23266693.124    23266694.204   122267302.567 3     -1572.595          20.750  
  23266696.084    23266695.284    95273232.178 3     -1225.305          20.750  
                                                                
  20155797.653    20155796.443   107668636.860 7     -3616.007          45.250  
  20155806.653    20155806.633    83742275.441 7     -2812.475          43.000  
                                                                
  22510637.800    22510637.710   118294185.923 5     -3381.338          32.500  
  22510640.200    22510639.260    92177291.102 5     -2634.794          32.500  
                                                                
  23888431.497    23888430.707   127652510.284 7     -5586.002          42.250  
  23888443.507    23888443.547    99285288.352 3     -4344.942          21.500  
                                                                
  23084394.717    23084395.147   121309303.413 5     -4335.887          32.250  
  23084403.167    23084402.107    94526728.581 5     -3378.639          32.250  
  23084405.077    90588112.815 8     -3237.842          50.750  
  20625346.799    20625348.009   110138211.504 7       795.859          45.000  
  20625356.189    20625356.229    85663048.285 7       619.022          42.000  
                                                                
  23390979.129    23390980.449   122920448.571 4      2381.411          24.500  
                  23390984.449    95782165.181 4      1855.583          24.500  
                                                                
  19267725.269    19267725.609   102852419.939 8     -1654.093          52.000  
  19267732.389    19267732.539    79996327.018 7     -1286.484          47.000  
                                                                
  20530091.567    20530091.797   107886356.270 7     -2385.880          44.500  
  20530093.267    20530092.787    84067292.289 7     -1859.095          44.500  
                                                                
  21696646.498    21696646.048   114016650.826 6      1061.102          39.000  
                  21696646.528    88844146.073 6       826.875          39.000  
                                                                
  21366245.776    21366244.756   114295001.240 6      1849.489          40.750  
  21366254.066    21366256.086    88896109.209 5      1438.555          33.000  
                                                                
  22033384.584    22033383.434   117574377.870 6       508.814          40.500  
  22033388.174    22033391.644    91446742.517 5       395.693          30.250  
                                                                
 14 10 17  8  1 25.0000000  0 15G 3R 7R21G 5R12G31R11G25R13G16R22G29-0.000243632
                                G21R23R 6
  21371439.434    21371437.214   112307671.809 4      1314.802          24.500  
                  21371439.994    87512474.022 4      1024.469          24.500  
                                                                
  23392584.041    23392584.691   125222363.058 6      2992.814          37.500  
  23392588.801    23392587.171    97395165.429 3      2329.120          20.500  
                                                                
  21970896.765    21970896.205   117570683.246 6     -4227.502          37.750  
  21970905.885    21970906.145    91443866.190 7     -3288.145          42.500  
                                                                
  23268190.488    23268192.128   122275171.331 3     -1575.362          20.250  
  23268192.898    23268193.438    95279363.640 3     -1227.734          20.250  
                                                                
  20159184.558    20159183.408   107686724.028 7     -3619.272          45.500  
  20159192.088    20159192.738    83756343.226 7     -2815.004          42.250  
                                                                
  22513855.052    22513854.452   118311095.507 5     -3382.811          32.500  
  22513859.162    22513857.432    92190467.399 5     -2635.944          32.500  
                                                                
  23893658.238    23893657.738   127680438.123 7     -5585.467          42.750  
  23893664.998                                                                  
                                                                
  23088520.902    23088520.532   121330984.210 5     -4336.632          33.000  
  23088528.552    23088528.542    94543622.680 5     -3379.142          33.000  
  23088530.532    90604302.974 8     -3238.429          50.750  
  20624604.419    20624604.669   110134240.742 7       792.123          45.500  
  20624612.679    20624613.019    85659959.915 7       616.082          42.250  
                                                                
  23388714.680    23388713.980   122908541.008 4      2380.996          24.000  
                  23388718.530    95772886.520 4      1855.383          24.000  
                                                                
  19269276.740    19269275.540   102860694.522 8     -1656.079          51.500  
  19269282.220    19269282.030    80002762.802 7     -1288.084          47.000  
                                                                
  20532362.861    20532362.371   107898288.051 7     -2387.123          43.750  
  20532363.421    20532363.081    84076589.781 7     -1860.100          43.750  
                                                                
  21695637.070    21695636.660   114011348.430 6      1059.608          38.500  
                  21695637.850    88840014.335 6       825.635          38.500  
                                                                
  21364516.645    21364515.825   114285756.116 6      1848.211          39.500  
  21364529.145    21364527.035    88888918.593 5      1437.510          33.750  
                                                                
  22032906.889    22032907.069   117571842.052 6       505.183          41.250  
  22032912.509    22032913.369    91444770.271 5       392.884          30.750  
                                                                
 14 10 17  8  1 30.0000000  0 16G 3R 7R 5R21G 5R12G31R11G25R13G16R22-0.000240791
                                G29G21R23R 6
  21370189.705    21370188.695   112301104.109 4      1312.116          24.750  
                  21370190.195    87507356.351 4      1022.335          24.750  
                                                                
  23389791.597    23389790.507   125207401.686 6      2991.734          38.250  
  23389806.887    23389804.867    97383528.926 4      2326.980          24.250  
                                                                
  23378529.090    23378651.160   124971668.479 4     -3108.898          26.500  
  23378544.910    23378539.870    97200187.316 4     -2417.890          29.000  
                                                                
  21974847.469    21974848.359   117591822.290 6     -4228.145          38.750  
  21974857.379    21974857.329    91460307.634 7     -3288.415          42.500  
                                                                
  23269691.873    23269692.703   122283056.153 3     -1578.602          20.250  
  23269692.753    23269690.973    95285507.688 3     -1230.206          20.250  
                                                                
  20162573.610    20162572.930   107704829.963 7     -3623.172          45.250  
  20162581.480    20162582.000    83770425.604 7     -2818.025          42.250  
                                                                
  22517075.318    22517073.988   118328015.452 5     -3385.064          32.000  
  22517078.228    22517076.588    92203651.741 5     -2637.635          32.000  
                                                                
  23898884.454    23898883.024   127708366.262 6     -5585.099          37.750  
  23898901.624                                                                  
                                                                
  23092647.383    23092647.023   121352670.671 5     -4338.023          32.750  
  23092655.123    23092654.953    94560521.178 5     -3380.279          32.750  
  23092657.523    90620497.381 8     -3239.429          50.250  
  20623866.855    20623864.945   110130291.118 7       787.804          45.250  
  20623872.305    20623873.075    85656887.981 6       612.768          41.750  
                                                                
  23386448.749    23386449.539   122896637.984 4      2380.103          25.250  
                  23386454.589    95763611.459 4      1854.541          25.250  
                                                                
  19270827.848    19270827.698   102868981.135 8     -1658.610          51.000  
  19270834.038    19270834.358    80009207.942 7     -1290.052          47.250  
                                                                
  20534634.457    20534634.557   107910228.185 7     -2388.940          45.000  
  20534635.687    20534635.487    84085893.758 7     -1861.569          45.000  
                                                                
  21694630.996    21694629.746   114006055.674 6      1057.525          39.500  
                  21694630.896    88835890.111 6       824.049          39.500  
                                                                
  21362792.787    21362790.107   114276519.057 6      1846.536          39.250  
  21362802.517    21362800.587    88881734.236 5      1436.186          31.750  
                                                                
  22032433.445    22032433.955   117569326.256 6       501.005          40.250  
  22032440.635    22032441.125    91442813.572 4       389.821          29.500  
                                                                
 14 10 17  8  1 35.0000000  0 16G 3R 7R 5R21G 5R12G31R11G25R13G16R22-0.000237950
                                G29G21R23R 6
  21368940.898    21368941.198   112294549.575 4      1309.865          25.250  
                  21368943.068    87502248.877 4      1020.581          25.250  
                                                                
  23386993.736    23386995.746   125192446.248 6      2990.807          38.000  
  23387013.466    23387008.396    97371897.900 4      2326.153          28.250  
                                                                
  23381434.822    23381561.592   124987224.586 4     -3112.778          25.500  
  23381450.712    23381450.612    97212287.045 5     -2421.094          32.250  
                                                                
  21978796.908    21978797.778   117612964.782 6     -4228.403          36.250  
  21978808.178    21978808.238    91476751.787 7     -3288.554          42.750  
                                                                
  23271195.464    23271193.244   122290957.662 3     -1581.609          21.500  
  23271195.954    23271196.124    95291664.628 3     -1232.532          21.500  
                                                                
  20165964.358    20165965.598   107722955.132 7     -3626.584          45.000  
  20165974.058    20165975.108    83784522.958 7     -2820.626          42.750  
                                                                
  22520297.230    22520296.650   118344946.191 5     -3386.983          32.000  
  22520298.480    22520298.760    92216844.476 5     -2639.262          32.000  
                                                                
  23904111.821    23904109.801   127736295.418 6     -5585.735          40.000  
  23904127.641    23904124.781    99350460.668 5     -4344.428          30.000  
                                                                
  23096776.961    23096776.351   121374363.218 5     -4338.893          35.000  
  23096784.161    23096783.171    94577424.464 5     -3380.938          35.000  
  23096785.421    90636696.351 8     -3240.096          50.000  
  20623128.169    20623128.989   110126363.020 7       783.640          44.500  
  20623137.059    20623137.859    85653832.806 6       609.522          41.750  
                                                                
  23384186.318    23384183.948   122884740.003 4      2379.258          25.250  
                  23384188.128    95754340.268 4      1853.870          25.250  
                                                                
  19272382.647    19272382.567   102877280.074 8     -1660.803          51.000  
  19272389.027    19272388.877    80015662.674 7     -1291.717          46.750  
                                                                
  20536908.350    20536908.300   107922177.133 7     -2390.396          44.250  
  20536909.400    20536909.190    84095204.625 7     -1862.624          44.250  
                                                                
  21693625.508    21693624.868   114000773.029 6      1055.792          39.250  
                  21693625.908    88831773.780 6       822.759          39.250  
                                                                
  21361064.121    21361065.951   114267290.516 6      1845.260          39.000  
  21361072.151    21361074.591    88874556.436 5      1435.172          33.250  
                                                                
  22031967.040    22031967.540   117566831.002 6       497.247          41.000  
  22031968.800    22031976.080    91440872.777 5       386.820          30.750  
                                                                
 14 10 17  8  1 40.0000000  0 16G 3R 7R 5R21G 5R12G31R11G25R13G16R22-0.000235109
                                G29G21R23R 6
  21367697.260    21367695.800   112288007.466 4      1307.889          25.000  
                  21367699.530    87497151.182 4      1019.182          25.000  
                                                                
  23384200.024    23384202.074   125177496.019 6      2990.129          37.500  
  23384218.544    23384218.064    97360270.023 4      2325.589          26.250  
                                                                
  23384341.280    23384462.730   125002798.874 4     -3116.200          28.750  
  23384363.070    23384363.370    97224400.426 5     -2423.695          34.750  
                                                                
  21982750.882    21982748.162   117634110.128 6     -4228.559          37.000  
  21982759.642    21982759.582    91493198.161 7     -3288.807          42.750  
                                                                
  23272699.996    23272701.716   122298875.066 3     -1584.426          21.500  
  23272704.056    23272704.316    95297834.007 3     -1234.751          21.500  
                                                                
  20169362.170    20169362.640   107741098.795 7     -3630.012          44.750  
  20169372.070    20169371.980    83798634.685 7     -2823.322          42.500  
                                                                
  22523520.394    22523519.984   118361886.973 4     -3388.613          29.750  
  22523522.384    22523521.944    92230045.079 4     -2640.553          29.750  
                                                                
  23909337.002    23909337.352   127764224.586 7     -5585.334          42.750  
  23909355.562    23909355.582    99372185.198 4     -4342.761          27.250  
                                                                
  23100905.499    23100904.409   121396061.238 5     -4339.633          34.500  
  23100912.699    23100912.039    94594331.987 5     -3381.549          34.500  
  23100914.569    90652899.385 8     -3240.620          50.500  
  20622399.284    20622398.514   110122455.753 7       780.044          45.250  
  20622404.164    20622404.964    85650793.815 6       606.604          41.250  
                                                                
  23381921.371    23381922.441   122872846.401 4      2378.904          25.000  
                  23381925.631    95745072.562 4      1853.691          25.000  
                                                                
  19273939.919    19273939.369   102885590.736 8     -1662.715          51.000  
  19273945.839    19273945.809    80022126.507 7     -1293.263          46.750  
                                                                
  20539183.589    20539183.549   107934134.207 7     -2391.699          43.750  
  20539185.489    20539184.379    84104521.820 7     -1863.700          43.750  
                                                                
  21692621.434    21692620.294   113995499.827 6      1054.254          38.750  
                  21692622.344    88827664.776 6       821.507          38.750  
                                                                
  21359339.703    21359339.343   114258070.011 6      1844.130          37.500  
  21359351.213    21359349.403    88867384.947 5      1434.369          34.500  
                                                                
  22031505.305    22031503.095   117564355.403 6       493.669          40.750  
  22031506.895    22031511.205    91438947.348 5       383.986          31.250  
                                                                
 14 10 17  8  1 45.0000000  0 16G 3R 7R 5R21G 5R12G31R11G25R13G16R22-0.000232270
                                G29G21R23R 6
  21366454.252    21366453.662   112281476.984 4      1304.708          25.250  
                  21366457.682    87492062.509 4      1016.765          25.250  
                                                                
  23381408.363    23381411.173   125162550.153 6      2988.477          38.250  
  23381426.003    23381424.303    97348645.442 4      2324.272          27.500  
                                                                
  23387271.404    23387378.494   125018390.677 5     -3120.026          32.000  
  23387284.914    23387280.564    97236526.803 5     -2426.628          34.750  
                                                                
  21986698.384    21986700.204   117655257.528 6     -4229.885          37.250  
  21986712.204    21986711.554    91509646.097 7     -3290.020          43.500  
                                                                
  23274208.696    23274207.946   122306807.340 3     -1588.132          20.000  
  23274211.966    23274212.646    95304015.025 3     -1237.468          20.000  
                                                                
  20172763.346    20172763.036   107759260.073 7     -3634.004          45.500  
  20172771.686    20172771.236    83812760.103 7     -2826.451          42.250  
                                                                
  22526746.011    22526745.751   118378836.987 5     -3391.087          30.500  
  22526748.301    22526747.911    92243252.844 5     -2642.480          30.500  
                                                                
  23914564.073    23914563.973   127792152.854 7     -5585.684          42.500  
  23914575.903                                                                  
                                                                
  23105034.690    23105034.870   121417763.784 5     -4341.078          35.500  
  23105043.160    23105042.200    94611243.046 5     -3382.642          35.500  
  23105044.260    90669105.807 8     -3241.724          50.750  
  20621668.981    20621670.371   110118568.379 7       775.360          45.250  
  20621678.611    20621677.851    85647770.317 6       603.041          41.750  
                                                                
  23379658.088    23379659.848   122860956.361 4      2377.455          24.500  
                  23379662.398    95735807.609 4      1852.406          24.500  
                                                                
  19275497.836    19275498.026   102893912.225 8     -1665.511          50.250  
  19275504.566    19275504.966    80028598.776 7     -1295.423          47.000  
                                                                
  20541460.543    20541460.203   107946098.524 7     -2393.727          43.750  
  20541461.103    20541461.153    84113844.661 7     -1865.243          43.750  
                                                                
  21691618.886    21691618.586   113990235.143 6      1051.974          38.500  
                  21691620.376    88823562.447 6       819.711          38.500  
                                                                
  21357616.367    21357617.757   114248856.437 6      1842.002          37.000  
  21357627.527    21357628.677    88860218.829 5      1432.664          35.000  
                                                                
  22031044.371    22031044.041   117561898.828 6       489.346          40.250  
  22031050.951    22031050.381    91437036.703 4       380.697          29.750  
                                                                
 14 10 17  8  1 50.0000000  0 16G 3R 7R 5R21G 5R12G31R11G25R13G16R22-0.000229430
                                G29G21R23R 6
  21365214.634    21365211.514   112274960.019 4      1301.931          25.000  
                  21365215.524    87486984.361 4      1014.549          25.000  
                                                                
  23378620.044    23378621.154   125147610.539 6      2987.453          38.500  
  23378635.044    23378633.544    97337025.815 4      2323.604          29.000  
                                                                
  23390190.960    23390298.280   125034000.548 5     -3123.587          31.250  
  23390204.570    23390203.040    97248667.577 6     -2429.459          36.250  
                                                                
  21990650.431    21990650.881   117676408.695 6     -4230.452          37.750  
  21990663.821    21990664.271    91526096.998 7     -3290.358          43.500  
                                                                
  23275725.304    23275723.964   122314756.554 3     -1591.362          20.000  
  23275723.554    23275726.004    95310209.187 3     -1239.965          20.000  
                                                                
  20176166.922    20176166.042   107777440.948 7     -3638.070          45.000  
  20176173.872    20176175.122    83826900.765 7     -2829.640          42.750  
                                                                
  22529974.410    22529973.230   118395798.041 5     -3393.209          30.750  
  22529975.140    22529975.150    92256469.296 5     -2644.013          30.750  
                                                                
  23919788.658    23919789.718   127820082.185 6     -5585.795          41.000  
  23919806.128    23919805.488    99415631.019 4     -4344.586          29.750  
                                                                
  23109164.937    23109165.547   121439472.795 5     -4342.303          35.500  
  23109173.837    23109173.597    94628159.116 5     -3383.575          35.500  
  23109175.557    90685317.036 8     -3242.607          51.000  
  20620946.865    20620946.245   110114702.927 7       770.971          45.500  
  20620954.095    20620954.235    85644763.854 7       599.655          43.000  
                                                                
  23377398.432    23377398.932   122849071.831 4      2376.488          24.750  
                  23377400.682    95726546.935 4      1851.766          24.750  
                                                                
  19277060.090    19277059.390   102902246.431 8     -1668.075          50.750  
  19277066.410    19277066.250    80035080.930 7     -1297.357          46.750  
                                                                
  20543739.169    20543738.759   107958071.993 7     -2395.503          44.000  
  20543740.009    20543739.459    84123174.626 7     -1866.590          44.000  
                                                                
  21690619.782    21690619.272   113984980.931 6      1049.975          39.000  
                  21690620.232    88819468.245 6       818.140          39.000  
                                                                
  21355892.299    21355895.709   114239651.729 6      1840.305          36.750  
  21355906.999    21355906.209    88853059.628 5      1431.352          33.250  
                                                                
  22030587.227    22030587.197   117559463.170 6       485.352          41.500  
  22030592.247    22030595.517    91435142.304 5       377.525          30.000  
                                                                
 14 10 17  8  1 55.0000000  0 16G 3R 7R 5R21G 5R12G31R11G25R13G16R22-0.000226589
                                G29G21R23R 6
  21363975.678    21363975.358   112268457.014 4      1299.340          24.500  
                  21363978.798    87481917.038 4      1012.468          24.500  
                                                                
  23375826.497    23375829.137   125132677.746 6      2985.949          37.750  
  23375843.647    23375843.667    97325411.453 5      2322.447          30.250  
                                                                
  23393116.556    23393222.666   125049629.113 4     -3128.298          26.000  
  23393124.956    23393126.406    97260823.276 5     -2433.394          35.250  
                                                                
  21994604.367    21994606.887   117697564.319 6     -4231.784          38.750  
  21994619.057    21994617.667    91542551.356 7     -3291.400          43.000  
                                                                
  23277241.150    23277241.950   122322723.009 3     -1594.924          20.250  
  23277239.230    23277240.350    95316416.826 3     -1242.835          20.250  
                                                                
  20179573.044    20179572.644   107795641.723 7     -3641.981          45.000  
  20179582.464    20179582.824    83841056.911 7     -2832.633          43.000  
                                                                
  22533204.299    22533204.629   118412770.659 5     -3395.640          30.750  
  22533206.629    22533204.869    92269694.660 5     -2645.920          30.750  
                                                                
  23925016.367    23925017.007   127848013.184 7     -5586.237          44.750  
  23925043.467                                                                  
                                                                
  23113298.296    23113298.236   121461188.648 6     -4343.779          36.000  
  23113306.236    23113305.586    94645080.542 6     -3384.780          36.000  
  23113307.986    90701533.399 8     -3243.770          50.750  
  20620225.414    20620225.764   110110859.885 7       766.467          44.000  
  20620233.804    20620234.594    85641774.824 7       596.130          43.750  
                                                                
  23375140.002    23375140.402   122837193.176 4      2375.251          25.500  
                  23375142.572    95717290.849 4      1850.870          25.500  
                                                                
  19278623.652    19278623.612   102910593.885 8     -1670.692          50.750  
  19278631.302    19278630.232    80041573.381 7     -1299.428          47.250  
                                                                
  20546018.977    20546019.177   107970055.025 7     -2397.409          44.750  
  20546020.697    20546019.997    84132512.045 7     -1868.116          44.750  
                                                                
  21689622.139    21689621.509   113979737.637 6      1047.706          39.000  
                  21689622.389    88815382.570 6       816.385          39.000  
                                                                
  21354180.371    21354177.001   114230456.547 5      1838.047          35.750  
  21354194.391    21354188.211    88845907.793 5      1429.656          35.000  
                                                                
  22030136.360    22030135.230   117557048.969 7       480.888          43.000  
  22030142.360    22030143.630    91433264.617 5       374.098          31.500  
                                                                
 14 10 17  8  2  0.0000000  0 16G 3R 7R 5R21G 5R12G31R11G25R13G16R22-0.000223749
                                G29G21R23R 6
  21362741.334    21362740.684   112261966.082 4      1296.806          24.000  
                  21362742.864    87476859.175 4      1010.402          24.000  
                                                                
  23373043.335    23373040.255   125117749.918 6      2985.041          36.750  
  23373055.325    23373054.845    97313800.940 5      2321.823          31.500  
                                                                
  23396041.706    23396147.136   125065275.219 5     -3131.096          30.000  
  23396053.546    23396052.686    97272992.268 6     -2435.311          36.250  
                                                                
  21998561.013    21998561.783   117718722.292 6     -4232.165          40.250  
  21998572.873    21998572.203    91559007.534 7     -3291.758          43.500  
                                                                
  23278759.257    23278759.567   122330704.945 3     -1598.157          20.250  
  23278760.167    23278758.597    95322636.545 3     -1245.225          20.250  
                                                                
  20182982.938    20182983.168   107813860.544 7     -3645.695          45.250  
  20182992.408    20182993.378    83855227.082 7     -2835.535          43.250  
                                                                
  22536435.519    22536435.649   118429752.840 5     -3397.544          30.750  
  22536437.819    22536435.999    92282927.502 5     -2647.487          30.750  
                                                                
  23930245.737    23930244.487   127875943.637 7     -5586.264          44.750  
                                                                                
                                                                
  23117432.185    23117431.375   121482909.541 5     -4344.829          35.000  
  23117439.465    23117438.465    94662005.872 5     -3385.617          35.000  
  23117441.475    90717753.518 8     -3244.536          50.750  
  20619510.445    20619509.155   110107037.171 7       762.459          43.500  
  20619518.785    20619518.965    85638801.620 7       593.076          43.750  
                                                                
  23372879.801    23372878.991   122825318.570 4      2374.414          25.250  
                  23372882.041    95708037.874 4      1850.201          25.250  
                                                                
  19280189.432    19280189.182   102918952.551 8     -1672.956          50.500  
  19280195.902    19280196.112    80048074.558 7     -1301.216          47.000  
                                                                
  20548300.925    20548301.035   107982045.777 7     -2399.078          44.000  
  20548302.185    20548301.815    84141855.478 7     -1869.437          44.000  
                                                                
  21688626.160    21688625.100   113974503.368 6      1045.837          39.000  
                  21688626.990    88811303.928 6       814.926          39.000  
                                                                
  21352462.353    21352460.523   114221268.632 6      1836.682          37.250  
  21352472.533    21352470.713    88838761.635 5      1428.404          35.000  
                                                                
  22029686.309    22029687.279   117554654.134 7       476.907          44.500  
  22029697.019    22029694.869    91431401.949 5       370.907          31.750  
                                                                
 14 10 17  8  2  5.0000000  0 16G 3R 7R 5R21G 5R12G31R11G25R13G16R22-0.000220911
                                G29G21R23R 6
  21361507.448    21361507.318   112255485.366 4      1295.040          24.000  
                  21361509.618    87471809.284 4      1009.299          24.000  
                                                                
  23370252.492    23370252.602   125102825.025 6      2984.407          37.500  
  23370266.942    23370266.962    97302192.770 5      2321.242          31.750  
                                                                
  23398971.842    23399077.062   125080936.187 5     -3133.869          32.000  
  23398981.932    23398982.962    97285173.141 6     -2437.449          37.250  
                                                                
  22002516.715    22002515.025   117739880.722 6     -4231.835          40.000  
  22002527.295    22002526.235    91575464.051 7     -3291.439          44.000  
                                                                
  23280282.029    23280282.039   122338700.477 3     -1600.730          21.250  
  23280281.259    23280280.349    95328866.797 3     -1247.283          21.250  
                                                                
  20186395.982    20186397.112   107832095.503 7     -3648.790          45.250  
  20186404.782    20186406.162    83869409.825 7     -2837.946          43.500  
                                                                
  22539668.370    22539668.380   118446742.748 5     -3398.904          31.000  
  22539671.300    22539670.800    92296166.393 5     -2648.446          31.000  
                                                                
  23935470.618    23935470.538   127903871.854 7     -5585.622          45.250  
  23935474.828                                                                  
                                                                
  23121566.206    23121565.226   121504633.503 5     -4345.310          35.750  
  23121573.636    23121573.306    94678933.614 5     -3385.956          35.750  
  23121575.296    90733975.926 8     -3244.842          50.750  
  20618798.087    20618797.927   110103233.105 7       758.757          44.250  
  20618806.737    20618806.237    85635842.898 7       590.156          43.750  
                                                                
  23370620.028    23370620.778   122813446.073 4      2374.139          25.000  
                  23370621.188    95698786.602 4      1850.089          25.000  
                                                                
  19281757.661    19281757.061   102927320.653 8     -1674.734          51.000  
  19281764.761    19281763.691    80054583.072 7     -1302.570          47.250  
                                                                
  20550583.977    20550583.697   107994042.279 7     -2400.073          44.000  
  20550584.797    20550584.747    84151203.396 7     -1870.187          44.000  
                                                                
  21687631.928    21687630.538   113969276.234 6      1044.485          39.250  
                  21687631.698    88807230.831 6       813.893          39.250  
                                                                
  21350746.542    21350744.832   114212086.362 6      1836.023          36.250  
  21350753.392    21350753.422    88831619.934 5      1428.103          35.500  
                                                                
  22029241.542    22029241.132   117552276.815 7       473.568          44.500  
  22029245.342    22029247.632    91429552.882 5       368.348          31.500  
                                                                
 14 10 17  8  2 10.0000000  0 16G 3R 7R 5R21G 5R12G31R11G25R13G16R22-0.000218072
                                G29G21R23R 6
  21360278.809    21360277.439   112249018.189 4      1291.848          24.000  
                  21360278.709    87466769.924 4      1006.781          24.000  
                                                                
  23367466.221    23367466.061   125087906.460 6      2983.017          38.250  
  23367479.131    23367479.421    97290589.465 5      2320.142          31.750  
                                                                
  23401904.322    23402008.852   125096615.977 5     -3137.896          33.000  
  23401915.522    23401916.652    97297368.357 6     -2440.554          37.250  
                                                                
  22006470.180    22006470.360   117761043.047 6     -4232.957          41.500  
  22006480.720    22006480.200    91591923.609 7     -3292.256          43.500  
                                                                
  23281805.407    23281807.747   122346712.699 3     -1604.179          22.750  
  23281805.757    23281805.827    95335110.079 3     -1250.112          22.750  
                                                                
  20189815.472    20189814.222   107850349.774 7     -3652.980          44.500  
  20189823.882    20189823.872    83883607.578 7     -2841.275          43.250  
                                                                
  22542903.539    22542902.479   118463743.608 5     -3401.480          30.250  
  22542905.789    22542904.619    92309413.789 5     -2650.480          30.250  
                                                                
  23940698.846    23940697.756   127931800.908 7     -5585.937          46.000  
  23940698.916                                                                  
                                                                
  23125701.096    23125701.616   121526363.805 6     -4346.883          36.250  
  23125708.786    23125708.646    94695866.280 6     -3387.177          36.250  
  23125710.746    90750203.053 8     -3246.039          51.250  
  20618089.693    20618089.953   110099451.084 7       754.157          44.750  
  20618097.893    20618098.273    85632901.318 7       586.559          43.750  
                                                                
  23368362.396    23368360.986   122801579.012 4      2372.768          24.000  
                  23368363.676    95689539.548 4      1848.969          24.000  
                                                                
  19283327.263    19283327.153   102935701.325 8     -1677.525          51.250  
  19283333.023    19283333.793    80061101.376 7     -1304.745          47.250  
                                                                
  20552867.982    20552868.382   108006047.841 7     -2402.154          44.000  
  20552869.892    20552869.122    84160558.372 7     -1871.815          44.000  
                                                                
  21686638.748    21686637.988   113964059.484 6      1042.170          39.250  
                  21686638.948    88803165.835 6       812.112          39.250  
                                                                
  21349026.971    21349029.931   114202913.006 6      1833.675          36.750  
  21349039.651    21349037.841    88824485.078 6      1426.215          36.250  
                                                                
  22028799.549    22028798.809   117549920.286 7       469.053          44.250  
  22028807.489    22028807.849    91427720.085 5       364.806          30.250  
                                                                
 14 10 17  8  2 15.0000000  0 16G 3R 7R 5R21G 5R12G31R11G25R13G16R22-0.000215234
                                G29G21R23R 6
  21359048.595    21359049.775   112242564.675 3      1289.357          23.750  
                  21359050.295    87461741.217 3      1004.689          23.750  
                                                                
  23364681.892    23364680.362   125072994.462 6      2981.760          37.000  
  23364690.052    23364693.522    97278991.290 5      2319.067          31.000  
                                                                
  23404837.053    23404950.363   125112315.140 4     -3141.820          29.750  
  23404846.993    23404853.363    97309578.223 6     -2443.722          38.500  
                                                                
  22010425.869    22010424.799   117782209.281 6     -4233.599          41.750  
  22010436.319    22010436.149    91608386.213 7     -3292.849          43.750  
                                                                
  23283333.638    23283334.338   122354741.977 3     -1607.607          22.750  
  23283332.868    23283333.768    95341366.703 3     -1252.599          22.750  
                                                                
  20193236.059    20193235.419   107868623.724 7     -3656.688          45.250  
  20193242.839    20193245.299    83897820.632 7     -2844.088          43.500  
                                                                
  22546141.225    22546140.995   118480755.638 5     -3403.450          30.250  
  22546142.205    22546142.495    92322669.889 5     -2652.009          30.250  
                                                                
  23945925.647    23945924.557   127959731.135 7     -5586.169          46.000  
  23945929.177    23945939.537    99524251.957 4     -4344.721          24.500  
                                                                
  23129837.150    23129837.270   121548100.655 5     -4348.034          35.750  
  23129845.380    23129845.360    94712804.075 5     -3388.139          35.750  
  23129846.940    90766435.093 8     -3246.969          51.500  
  20617385.798    20617384.918   110095691.048 7       749.840          44.500  
  20617393.288    20617394.038    85629976.847 7       583.214          42.750  
                                                                
  23366103.433    23366105.843   122789717.581 3      2371.709          23.500  
                  23366105.913    95680296.858 3      1848.055          23.500  
                                                                
  19284899.780    19284899.460   102944094.869 8     -1679.988          51.250  
  19284905.540    19284906.100    80067629.680 7     -1306.681          47.000  
                                                                
  20555154.852    20555154.702   108018062.731 7     -2403.917          43.750  
  20555156.032    20555155.332    84169920.600 7     -1873.198          43.750  
                                                                
  21685648.795    21685647.405   113958853.380 6      1040.203          39.000  
                  21685648.335    88799109.134 6       810.531          39.000  
                                                                
  21347316.526    21347317.626   114193748.755 6      1831.975          38.750  
  21347328.116    21347326.666    88817357.296 6      1424.870          36.000  
                                                                
  22028362.863    22028362.343   117547584.925 7       464.968          44.000  
  22028362.283    22028368.623    91425903.663 4       361.646          29.250  
                                                                
 14 10 17  8  2 20.0000000  0 16G 3R 7R 5R21G 5R12G31R11G25R13G16R22-0.000212395
                                G29G21R23R 6
  21357823.832    21357822.972   112236123.859 4      1286.699          24.000  
                  21357825.262    87456722.400 4      1002.701          24.000  
                                                                
  23361899.264    23361897.304   125058088.018 6      2980.583          37.750  
  23361907.854    23361909.554    97267397.432 5      2318.256          31.500  
                                                                
  23407780.515    23407891.145   125128030.957 4     -3145.401          27.250  
  23407795.605    23407793.225    97321801.794 6     -2446.424          37.750  
                                                                
  22014380.734    22014380.594   117803378.519 6     -4234.462          41.250  
  22014391.474    22014391.744    91624851.153 7     -3293.467          43.500  
                                                                
  23284865.460    23284863.250   122362787.232 3     -1610.848          22.750  
  23284866.210    23284866.160    95347635.706 3     -1255.270          22.750  
                                                                
  20196659.029    20196659.639   107886916.185 7     -3660.667          45.000  
  20196668.629    20196669.349    83912048.092 7     -2847.256          43.500  
                                                                
  22549378.858    22549379.328   118497777.843 5     -3405.714          30.750  
  22549382.348    22549381.348    92335933.941 5     -2653.785          30.750  
                                                                
  23951151.731    23951151.781   127987661.532 7     -5586.284          44.500  
  23951144.771    23951166.051    99545977.999 3     -4343.832          23.500  
                                                                
  23133974.870    23133975.080   121569843.073 5     -4349.324          35.000  
  23133983.020    23133982.650    94729746.186 5     -3389.048          35.000  
  23133984.910    90782671.273 8     -3247.875          51.500  
  20616686.310    20616685.280   110091952.163 7       745.326          44.000  
  20616693.310    20616693.530    85627068.839 7       579.771          42.750  
                                                                
  23363846.955    23363847.595   122777860.787 3      2370.663          23.500  
                  23363850.635    95671057.823 3      1847.205          23.500  
                                                                
  19286474.676    19286474.036   102952500.275 8     -1682.559          51.250  
  19286479.966    19286480.776    80074167.217 7     -1308.664          47.500  
                                                                
  20557442.236    20557442.396   108030085.860 7     -2405.752          44.000  
  20557443.646    20557443.656    84179289.262 7     -1874.666          44.000  
                                                                
  21684659.752    21684658.592   113953656.874 6      1038.101          40.000  
                  21684659.732    88795059.916 6       808.903          40.000  
                                                                
  21345602.496    21345605.036   114184592.644 6      1830.140          39.250  
  21345615.816    21345614.626    88810235.899 6      1423.522          36.500  
                                                                
  22027925.654    22027928.274   117545269.591 7       460.838          43.000  
  22027932.854    22027930.764    91424102.827 4       358.321          27.500  
                                                                
 14 10 17  8  2 25.0000000  0 16G 3R 7R 5R21G 5R12G31R11G25R13G16R22-0.000209557
                                G29G21R23R 6
  21356601.291    21356600.091   112229696.259 4      1283.589          24.250  
                  21356601.601    87451713.865 4      1000.149          24.250  
                                                                
  23359114.150    23359112.340   125043187.705 6      2978.843          37.750  
  23359122.160    23359125.190    97255808.363 5      2316.894          32.500  
                                                                
  23410723.074    23410841.754   125143765.394 4     -3149.105          24.750  
  23410738.994    23410738.004    97334039.426 6     -2449.296          36.250  
                                                                
  22018337.122    22018337.602   117824551.164 6     -4235.303          41.750  
  22018348.132    22018349.232    91641318.749 7     -3294.099          43.500  
                                                                
  23286397.277    23286397.237   122370848.970 3     -1614.346          22.750  
  23286398.057    23286401.337    95353917.583 3     -1257.910          22.750  
                                                                
  20200087.728    20200087.458   107905227.634 7     -3664.640          45.500  
  20200096.388    20200097.458    83926290.310 7     -2850.310          43.250  
                                                                
  22552620.613    22552620.513   118514810.553 5     -3408.035          30.500  
  22552624.213    22552622.753    92349206.115 5     -2655.711          30.500  
                                                                
  23956378.717    23956378.437   128015592.404 7     -5586.704          45.750  
  23956395.857    23956393.847    99567702.578 4     -4345.410          26.000  
                                                                
  23138113.454    23138113.254   121591591.417 5     -4350.764          35.000  
  23138121.494    23138121.384    94746692.908 5     -3390.194          35.000  
  23138123.614    90798911.885 8     -3248.918          52.000  
  20615989.904    20615989.434   110088234.874 7       740.853          44.750  
  20615996.274    20615997.494    85624177.618 6       576.233          41.500  
                                                                
  23361592.495    23361591.885   122766009.065 3      2369.300          22.500  
                  23361595.325    95661822.713 3      1846.167          22.500  
                                                                
  19288050.916    19288051.206   102960918.018 8     -1685.272          51.250  
  19288058.356    19288057.646    80080714.344 7     -1310.737          47.500  
                                                                
  20559732.320    20559732.040   108042117.664 7     -2407.670          43.000  
  20559733.450    20559732.800    84188664.681 7     -1876.135          43.000  
                                                                
  21683672.374    21683672.034   113948470.417 6      1035.849          39.500  
                  21683672.314    88791018.517 6       807.164          39.500  
                                                                
  21343895.067    21343894.567   114175445.018 6      1828.196          39.750  
  21343903.457    21343904.827    88803121.045 6      1421.830          37.250  
                                                                
  22027497.389    22027497.519   117542974.769 7       456.455          42.000  
  22027501.819    22027501.289    91422318.001 4       355.088          27.500  
                                                                
 14 10 17  8  2 30.0000000  0 16G 3R 7R 5R21G 5R12G31R11G25R13G16R22-0.000206718
                                G29G21R23R 6
  21355380.638    21355378.908   112223281.532 4      1281.586          24.500  
                  21355381.028    87446715.394 4       998.663          24.500  
                                                                
  23356329.204    23356330.444   125028293.009 6      2978.337          37.250  
  23356342.014    23356343.304    97244223.643 5      2316.385          32.750  
                                                                
  23413668.163                                       -3151.810                  
  23413685.003    23413682.733    97346290.844 5     -2451.384          35.000  
                                                                
  22022296.895    22022296.585   117845726.912 7     -4235.464          42.750  
  22022306.485    22022306.385    91657788.740 7     -3294.261          43.750  
                                                                
  23287934.411    23287935.041   122378926.897 3     -1617.214          20.750  
  23287936.901    23287934.811    95360212.056 3     -1260.105          20.750  
                                                                
  20203518.829    20203519.279   107923557.798 7     -3667.897          45.500  
  20203528.959    20203529.069    83940547.100 7     -2852.813          43.250  
                                                                
  22555865.000    22555864.810   118531853.533 4     -3409.573          28.750  
  22555866.960    22555865.790    92362486.366 4     -2656.819          28.750  
                                                                
  23961605.776    23961605.706   128043523.618 7     -5586.284          46.000  
  23961624.386    23961619.976    99589426.759 4     -4344.934          28.750  
                                                                
  23142253.357    23142252.857   121613345.433 5     -4351.459          35.000  
  23142260.927    23142260.747    94763644.079 5     -3390.750          35.000  
  23142263.307    90815156.749 8     -3249.484          52.000  
  20615298.727    20615297.527   110084538.851 7       737.112          45.000  
  20615304.177    20615305.707    85621302.915 6       573.344          41.750  
                                                                
  23359338.305    23359336.645   122754162.164 3      2368.966          22.500  
                  23359337.825    95652591.346 3      1845.895          22.500  
                                                                
  19289630.292    19289630.042   102969347.658 8     -1687.159          52.000  
  19289637.012    19289636.672    80087270.728 8     -1312.265          48.000  
                                                                
  20562023.574    20562023.354   108054157.888 7     -2408.973          43.000  
  20562024.604    20562023.964    84198046.665 7     -1877.178          43.000  
                                                                
  21682687.880    21682686.660   113943293.732 6      1034.363          40.000  
                  21682687.680    88786984.742 6       805.995          40.000  
                                                                
  21342188.519    21342186.019   114166305.591 6      1826.840          38.500  
  21342195.299    21342195.769    88796012.627 6      1420.708          37.500  
                                                                
  22027072.067    22027071.377   117540700.296 7       452.947          42.500  
  22027080.957    22027075.937    91420548.968 4       352.313          27.500  
                                                                
 14 10 17  8  2 35.0000000  0 16G 3R 7R 5R21G 5R12G31R11G25R13G16R22-0.000203880
                                G29G21R23R 6
  21354162.272    21354161.942   112216879.505 4      1279.343          25.250  
                  21354163.622    87441726.786 4       996.851          25.250  
                                                                
  23353550.137    23353549.497   125013403.929 6      2977.252          37.000  
  23353565.677    23353560.637    97232643.303 5      2315.555          32.750  
                                                                
  23416620.405    23416761.885   125175282.467 3     -3155.536          19.250  
  23416636.565    23416632.335    97358555.980 5     -2454.421          33.250  
                                                                
  22026251.412    22026253.312   117866905.564 6     -4236.153          41.500  
  22026264.692    22026263.652    91674261.010 7     -3294.883          42.750  
                                                                
  23289474.209    23289475.339   122387020.742 3     -1620.267          20.750  
  23289473.799    23289474.619    95366518.973 3     -1262.642          20.750  
                                                                
  20206953.218    20206953.848   107941906.402 7     -3671.636          45.250  
  20206962.518    20206963.768    83954818.231 7     -2855.679          43.250  
                                                                
  22559109.198    22559110.918   118548906.634 4     -3411.624          29.250  
  22559111.288    22559111.758    92375774.474 4     -2658.321          29.250  
                                                                
  23966834.312    23966832.892   128071454.788 7     -5586.172          46.500  
  23966842.152    23966849.242    99611150.995 5     -4344.780          30.750  
                                                                
  23146393.383    23146393.683   121635104.941 5     -4352.507          34.750  
  23146401.343    23146401.483    94780599.523 5     -3391.545          34.750  
  23146403.873    90831405.697 8     -3250.237          52.000  
  20614610.097    20614609.047   110080863.884 7       732.787          44.500  
  20614618.577    20614616.977    85618444.621 7       569.905          42.000  
                                                                
  23357083.569    23357081.949   122742319.862 3      2368.047          20.500  
                  23357086.429    95643363.596 3      1845.234          20.500  
                                                                
  19291211.802    19291211.632   102977789.049 8     -1689.489          52.000  
  19291217.762    19291217.942    80093836.250 7     -1314.052          47.500  
                                                                
  20564316.447    20564316.187   108066206.296 7     -2410.510          43.500  
  20564317.827    20564316.937    84207435.030 7     -1878.310          43.500  
                                                                
  21681704.257    21681703.577   113938126.636 6      1032.459          40.250  
                  21681704.387    88782958.436 6       804.526          40.250  
                                                                
  21340478.125    21340479.345   114157174.164 6      1825.562          38.500  
  21340485.895    21340489.005    88788910.401 6      1419.926          37.000  
                                                                
  22026647.225    22026647.985   117538445.941 6       448.805          41.500  
  22026658.765    22026654.985    91418795.592 4       349.126          27.500  
                                                                
 14 10 17  8  2 40.0000000  0 16G 3R 7R 5R21G 5R12G31R11G25R13G16R22-0.000201042
                                G29G21R23R 6
  21352946.425    21352946.975   112210490.987 4      1276.228          25.250  
                  21352945.865    87436748.711 4       994.503          25.250  
                                                                
  23350766.507    23350769.167   124998521.296 6      2975.854          36.750  
  23350780.607    23350781.757    97221067.957 5      2314.547          33.250  
                                                                
  23419573.520    23419683.300   125191069.315 3     -3159.636          23.750  
                  23419584.860    97370836.376 4     -2457.409          29.750  
                                                                
  22030210.723    22030211.073   117888087.887 6     -4237.043          40.750  
  22030222.463    22030222.633    91690736.130 7     -3295.515          42.750  
                                                                
  23291018.143    23291019.423   122395131.315 3     -1623.835          18.750  
  23291019.753    23291018.183    95372838.845 3     -1265.237          18.750  
                                                                
  20210392.485    20210392.915   107960274.141 7     -3675.640          45.500  
  20210400.995    20210402.515    83969104.234 7     -2858.822          43.750  
                                                                
  22562356.448    22562356.278   118565970.570 5     -3414.052          30.750  
  22562357.978    22562359.058    92389071.021 5     -2660.227          30.750  
                                                                
  23972060.039    23972059.659   128099386.653 7     -5586.625          44.250  
  23972074.959    23972076.699    99632876.763 4     -4344.981          28.750  
                                                                
  23150536.005    23150536.175   121656870.654 5     -4353.961          34.000  
  23150543.115    23150543.715    94797559.781 5     -3392.713          34.000  
  23150545.845    90847659.275 8     -3251.338          52.000  
  20613925.794    20613924.764   110077210.818 7       728.252          44.250  
  20613932.724    20613933.304    85615603.353 7       566.410          42.500  
                                                                
  23354831.135    23354829.545   122730482.813 3      2366.729          20.500  
                  23354832.405    95634139.981 3      1844.297          20.500  
                                                                
  19292795.773    19292795.143   102986243.017 8     -1692.233          51.750  
  19292800.583    19292801.713    80100411.546 7     -1316.197          47.500  
                                                                
  20566610.519    20566610.639   108078263.645 7     -2412.468          43.250  
  20566611.879    20566611.289    84216830.349 7     -1879.845          43.250  
                                                                
  21680722.992    21680721.492   113932969.887 6      1030.183          40.250  
                  21680722.832    88778940.194 6       802.764          40.250  
                                                                
  21338773.170    21338772.770   114148051.667 6      1823.441          38.500  
  21338782.910    21338783.370    88781815.168 6      1418.217          36.750  
                                                                
  22026229.546    22026229.496   117536212.420 6       444.450          40.500  
  22026233.806    22026236.676    91417058.400 4       345.747          27.000  
                                                                
 14 10 17  8  2 45.0000000  0 16G 3R 7R 5R21G 5R12G31R11G25R13G16R22-0.000198204
                                G29G21R23R 6
  21351734.346    21351732.246   112204114.980 4      1274.035          25.500  
                  21351734.396    87431780.415 4       992.750          25.500  
                                                                
  23347990.545    23347988.925   124983644.104 6      2974.790          36.500  
  23348001.715    23348002.095    97209496.867 5      2313.770          33.500  
                                                                
  23422529.839    23422655.209   125206874.802 3     -3162.871          22.250  
  23422543.919    23422543.619    97383129.380 4     -2460.100          25.750  
                                                                
  22034170.529    22034170.519   117909272.895 6     -4237.325          40.500  
  22034181.189    22034181.699    91707213.347 7     -3295.703          42.250  
                                                                
  23292564.445    23292564.495   122403257.635 3     -1626.764          18.750  
  23292563.475    23292563.995    95379171.041 3     -1267.604          18.750  
                                                                
  20213836.528    20213834.938   107978660.262 7     -3679.026          45.500  
  20213842.498    20213844.468    83983404.534 7     -2861.444          43.500  
                                                                
  22565606.192    22565605.892   118583044.372 4     -3415.723          29.500  
  22565605.372    22565606.312    92402375.257 4     -2661.553          29.500  
                                                                
  23977288.258    23977286.998   128127318.428 7     -5586.287          44.000  
  23977299.628    23977301.998    99654601.374 5     -4344.896          30.000  
                                                                
  23154679.074    23154678.814   121678641.603 5     -4354.666          34.250  
  23154686.664    23154686.274    94814524.133 5     -3393.239          34.250  
  23154688.804    90863916.776 8     -3251.851          52.250  
  20613245.895    20613244.835   110073578.739 7       724.337          44.250  
  20613251.405    20613252.885    85612778.405 7       563.340          42.250  
                                                                
  23352581.801    23352578.441   122718650.189 3      2366.220          19.750  
                  23352577.821    95624919.704 3      1843.839          19.750  
                                                                
  19294381.370    19294381.120   102994708.633 8     -1694.308          52.000  
  19294387.690    19294387.780    80106995.913 7     -1317.807          47.750  
                                                                
  20568906.752    20568906.832   108090329.047 7     -2413.861          43.000  
  20568907.712    20568907.242    84226231.951 7     -1880.924          43.000  
                                                                
  21679742.799    21679742.439   113927822.488 6      1028.553          40.250  
                  21679743.359    88774929.244 6       801.469          40.250  
                                                                
  21337066.973    21337070.953   114138936.935 6      1822.178          40.500  
  21337082.353    21337079.813    88774725.901 6      1417.120          37.500  
                                                                
  22025814.117    22025815.557   117533998.710 6       440.712          41.750  
  22025818.097    22025823.077    91415336.626 4       342.796          29.000  
                                                                
 14 10 17  8  2 50.0000000  0 16G 3R 7R 5R21G 5R12G31R11G25R13G16R22-0.000195366
                                G29G21R23R 6
  21350522.603    21350521.573   112197752.454 4      1271.188          26.000  
                  21350522.563    87426822.595 4       990.565          26.000  
                                                                
  23345210.654    23345209.214   124968773.264 6      2973.628          37.500  
  23345224.494    23345222.834    97197930.715 5      2312.896          34.750  
                                                                
  23425494.091    23425606.051   125222697.465 4     -3166.592          28.250  
  23425492.811    23425504.191    97395438.557 4     -2463.038          25.000  
                                                                
  22038130.883    22038129.763   117930461.443 6     -4238.128          40.000  
  22038139.453    22038140.663    91723693.304 6     -3296.326          41.250  
                                                                
  23294116.036    23294112.646   122411400.680 3     -1630.214          18.750  
  23294116.626    23294114.926    95385516.205 3     -1270.288          18.750  
                                                                
  20217281.539    20217280.569   107997065.408 7     -3682.783          45.000  
  20217289.359    20217289.759    83997719.639 7     -2864.366          43.000  
                                                                
  22568856.907    22568855.867   118600128.913 4     -3417.909          29.000  
  22568857.417    22568859.147    92415687.869 4     -2663.273          29.000  
                                                                
  23982515.844    23982515.944   128155250.959 6     -5586.374          37.750  
  23982528.004    23982532.534    99676327.115 4     -4343.556          28.750  
                                                                
  23158823.081    23158821.931   121700418.765 5     -4356.023          33.250  
  23158830.511    23158830.161    94831493.283 5     -3394.367          33.250  
  23158832.591    90880178.876 8     -3252.921          51.500  
  20612569.773    20612569.533   110069968.590 7       719.812          43.750  
  20612577.263    20612576.963    85609970.516 7       559.810          42.000  
                                                                
  23350330.749    23350329.809   122706822.899 3      2365.006          19.750  
                  23350330.169    95615703.643 3      1842.903          19.750  
                                                                
  19295969.164    19295969.124   103003186.620 8     -1696.847          50.750  
  19295975.774    19295976.174    80113589.902 7     -1319.751          47.250  
                                                                
  20571204.499    20571204.229   108102403.331 7     -2415.660          42.750  
  20571205.369    20571205.019    84235640.475 7     -1882.321          42.750  
                                                                
  21678765.512    21678765.072   113922685.424 6      1026.422          40.250  
                  21678766.052    88770926.333 6       799.819          40.250  
                                                                
  21335364.332    21335367.342   114129831.232 6      1820.202          38.500  
  21335375.632    21335376.782    88767643.709 6      1415.808          36.500  
                                                                
  22025401.453    22025404.523   117531805.967 6       436.623          40.000  
  22025411.433    22025411.203    91413631.146 4       339.606          28.500  
                                                                
 14 10 17  8  2 55.0000000  0 16G 3R 7R 5R21G 5R12G31R11G25R13G16R22-0.000192529
                                G29G21R23R 6
  21349314.346    21349314.036   112191402.600 4      1268.938          26.250  
                  21349313.456    87421874.641 4       988.727          26.250  
                                                                
  23342428.523    23342431.573   124953908.034 6      2972.691          37.750  
  23342447.873    23342447.373    97186368.911 5      2312.186          33.500  
                                                                
  23428452.968    23428557.528   125238537.250 4     -3169.800          25.500  
  23428529.208                                                                  
                                                                
  22042091.328    22042090.068   117951652.951 6     -4238.448          39.500  
  22042100.938    22042100.848    91740175.549 6     -3296.528          41.750  
                                                                
  23295668.011    23295666.421   122419559.529 3     -1633.209          18.750  
  23295667.601    23295668.061    95391873.799 3     -1272.756          18.750  
                                                                
  20220729.998    20220728.858   108015488.975 7     -3686.288          45.000  
  20220738.298    20220738.378    84012049.062 7     -2867.127          43.000  
                                                                
  22572110.027    22572109.917   118617223.450 5     -3419.700          30.250  
  22572110.697    22572110.637    92429008.295 5     -2664.634          30.250  
                                                                
  23987741.640    23987741.230   128183183.249 7     -5586.204          43.500  
  23987758.490                                                                  
                                                                
  23162967.988    23162967.288   121722201.217 5     -4356.789          33.000  
  23162975.898    23162975.368    94848466.619 5     -3394.938          33.000  
  23162978.038    90896444.996 8     -3253.451          52.000  
  20611895.965    20611896.215   110066379.363 7       715.943          44.750  
  20611906.405    20611904.855    85607178.898 7       556.828          42.000  
                                                                
  23348080.663    23348080.323   122695000.271 3      2364.171          20.750  
                  23348080.263    95606491.162 3      1842.285          20.750  
                                                                
  19297559.739    19297559.589   103011676.293 8     -1698.870          51.750  
  19297566.869    19297566.399    80120192.970 7     -1321.353          47.500  
                                                                
  20573503.527    20573503.227   108114485.729 7     -2417.028          43.500  
  20573504.567    20573504.157    84245055.324 7     -1883.403          43.500  
                                                                
  21677789.882    21677789.122   113917557.904 6      1024.821          40.250  
                  21677790.172    88766930.877 6       798.558          40.250  
                                                                
  21333668.912    21333668.882   114120733.311 6      1818.934          41.250  
  21333679.502    21333677.372    88760567.520 6      1414.662          37.250  
                                                                
  22024995.861    22024996.221   117529633.133 6       432.925          41.000  
  22025002.371    22025003.831    91411941.182 4       336.747          27.250  
                                                                
 14 10 17  8  3  0.0000000  0 16G 3R 7R 5R21G 5R12G31R11G25R13G16R22-0.000189691
                                G29G21R23R 6
  21348107.972    21348107.422   112185065.897 4      1265.884          26.500  
                  21348107.922    87416936.955 4       986.370          26.500  
                                                                
  23339654.283    23339656.683   124939048.657 6      2970.983          38.250  
  23339667.813    23339671.193    97174811.681 5      2310.664          34.500  
                                                                
  23431417.999    23431509.579   125254394.809 3     -3173.694          20.500  
  23431524.949                                                                  
                                                                
  22046051.016    22046051.466   117972847.603 6     -4239.365          39.250  
  22046061.546    22046061.656    91756660.267 6     -3297.326          41.500  
                                                                
  23297225.334    23297224.304   122427734.788 2     -1636.812          15.000  
  23297219.834    23297221.294    95398244.093 2     -1275.353          15.000  
                                                                
  20224180.001    20224181.631   108033931.342 7     -3690.485          45.250  
  20224190.831    20224191.301    84026393.115 7     -2870.386          43.250  
                                                                
  22575364.421    22575364.641   118634328.364 5     -3422.146          30.000  
  22575365.811    22575366.481    92442336.753 5     -2666.563          30.000  
                                                                
  23992969.058    23992967.628   128211116.016 7     -5586.775          42.750  
  23992987.248    23992980.718    99719775.104 3     -4345.320          21.250  
                                                                
  23167114.142    23167113.072   121743989.509 5     -4358.347          33.500  
  23167121.372    23167121.352    94865444.493 5     -3396.127          33.500  
  23167124.062    90912715.437 8     -3254.620          51.250  
  20611228.262    20611228.762   110062811.758 7       711.248          45.000  
  20611237.492    20611236.912    85604404.088 7       553.169          43.000  
                                                                
  23345832.037    23345830.167   122683182.673 3      2362.896          20.750  
                  23345830.577    95597282.696 3      1841.294          20.750  
                                                                
  19299153.310    19299152.530   103020178.053 8     -1701.661          52.250  
  19299158.960    19299159.160    80126805.451 7     -1323.499          47.750  
                                                                
  20575804.506    20575804.186   108126576.679 7     -2419.171          43.250  
  20575805.056    20575804.736    84254476.827 7     -1885.078          43.250  
                                                                
  21676815.848    21676815.158   113912440.382 6      1022.347          40.000  
                  21676816.128    88762943.199 6       796.626          40.000  
                                                                
  21331971.092    21331968.602   114111643.853 6      1816.987          41.500  
  21331977.992    21331978.402    88753497.972 6      1413.210          37.250  
                                                                
  22024594.253    22024593.633   117527480.860 6       428.223          40.500  
  22024603.503    22024598.653    91410267.193 4       333.045          28.250  
                                                                
 14 10 17  8  3  5.0000000  0 16G 3R 7R 5R21G 5R12G31R11G25R13G16R22-0.000186854
                                G29G21R23R 6
  21346903.490    21346902.530   112178741.820 4      1263.438          25.500  
                  21346904.840    87412009.093 4       984.620          25.500  
                                                                
  23336886.716    23336881.246   124924194.934 6      2970.191          37.000  
  23336897.146    23336896.316    97163258.821 5      2310.167          33.750  
                                                                
  23434386.604                                       -3177.042                  
  23434456.814                                                                  
                                                                
  22050012.564    22050012.794   117994044.971 6     -4239.713          38.250  
  22050023.714    22050022.694    91773147.066 6     -3297.540          41.250  
                                                                
  23298782.153    23298782.113   122435925.760 2     -1639.827          15.000  
  23298780.473    23298780.603    95404626.705 2     -1277.724          15.000  
                                                                
  20227639.123    20227637.743   108052391.823 7     -3693.799          45.250  
  20227647.793    20227646.803    84040751.248 7     -2872.976          43.750  
                                                                
  22578621.037    22578621.387   118651443.114 4     -3423.891          29.000  
  22578622.527    22578622.937    92455672.883 4     -2667.962          29.000  
                                                                
  23998195.529    23998195.459   128239048.232 7     -5586.310          43.250  
  23998211.939    23998208.269    99741501.302 3     -4344.168          22.750  
                                                                
  23171260.997    23171260.467   121765783.083 5     -4359.304          32.250  
  23171268.207    23171268.407    94882426.462 5     -3396.866          32.250  
  23171271.437    90928989.814 8     -3255.306          51.500  
  20610565.274    20610563.944   110059265.100 7       707.234          44.000  
  20610572.454    20610572.514    85601645.583 7       550.055          42.500  
                                                                
  23343584.505    23343580.775   122671369.694 3      2362.163          20.500  
                  23343581.935    95588077.780 3      1840.725          20.500  
                                                                
  19300747.517    19300747.237   103028691.351 8     -1703.812          52.000  
  19300754.617    19300754.087    80133426.906 8     -1325.172          48.000  
                                                                
  20578107.089    20578106.899   108138675.616 7     -2420.479          44.000  
  20578107.849    20578107.229    84263904.557 7     -1886.065          44.000  
                                                                
  21675844.493    21675842.833   113907332.293 6      1020.684          40.500  
                  21675844.443    88758962.874 6       795.380          40.500  
                                                                
  21330272.872    21330270.942   114102562.356 6      1815.590          41.750  
  21330281.062    21330280.332    88746434.593 6      1412.197          37.000  
                                                                
  22024194.009    22024194.559   117525348.523 6       424.530          39.750  
  22024199.039    22024200.339    91408608.701 4       330.276          29.750  
                                                                
 14 10 17  8  3 10.0000000  0 16G 3R 7R 5R21G 5R12G31R11G25R13G16R22-0.000184016
                                G29G21R23R 6
  21345703.139    21345702.639   112172430.653 4      1261.028          26.000  
                  21345705.759    87407091.316 4       982.730          26.000  
                                                                
  23334104.552    23334107.722   124909347.241 6      2968.728          37.750  
  23334123.282    23334123.262    97151710.679 5      2308.892          34.500  
                                                                
  23437363.633    23437462.943   125286162.203 4     -3180.735          27.250  
                                                                                
                                                                
  22053974.564    22053974.964   118015245.415 6     -4240.417          39.500  
  22053982.314    22053984.134    91789636.295 6     -3298.056          40.250  
                                                                
  23300342.566    23300347.566   122444132.916 2     -1643.105          15.000  
  23300343.456    23300342.976    95411021.844 2     -1280.341          15.000  
                                                                
  20231095.946    20231096.586   108070870.822 7     -3697.714          45.000  
  20231106.176    20231105.576    84055123.794 7     -2876.007          43.250  
                                                                
  22581880.887    22581881.037   118668568.043 4     -3426.105          29.500  
  22581883.257    22581882.077    92469016.967 4     -2669.661          29.500  
                                                                
  24003422.623    24003422.003   128266980.708 7     -5586.667          43.500  
  24003432.933    24003435.823    99763226.561 4     -4345.077          24.500  
                                                                
  23175408.754    23175409.054   121787582.248 5     -4360.514          31.750  
  23175417.184    23175416.294    94899412.803 5     -3397.892          31.750  
  23175419.674    90945268.380 8     -3256.269          51.750  
  20609904.585    20609903.675   110055739.976 7       702.820          44.000  
  20609911.765    20609912.395    85598903.821 7       546.643          42.500  
                                                                
  23341338.301    23341336.081   122659561.589 3      2360.887          20.500  
                  23341336.551    95578876.627 3      1839.553          20.500  
                                                                
  19302344.910    19302344.420   103037216.591 8     -1706.369          52.250  
  19302351.510    19302351.040    80140057.642 8     -1327.158          48.000  
                                                                
  20580410.574    20580410.954   108150782.962 7     -2422.420          43.750  
  20580411.754    20580411.284    84273338.850 7     -1887.603          43.750  
                                                                
  21674873.573    21674872.723   113902234.031 6      1018.610          39.750  
                  21674873.953    88754990.197 6       793.681          39.750  
                                                                
  21328574.596    21328574.976   114093489.078 7      1813.747          42.000  
  21328584.186    21328584.046    88739377.614 6      1410.746          37.250  
                                                                
  22023796.649    22023797.679   117523236.592 6       420.367          38.750  
  22023804.959    22023806.799    91406966.099 5       327.015          31.000  
                                                                
 14 10 17  8  3 15.0000000  0 16G 3R 7R 5R21G 5R12G31R11G25R13G16R22-0.000181179
                                G29G21R23R 6
  21344505.669    21344505.459   112166132.904 4      1257.677          26.750  
                  21344506.729    87402183.998 4       980.068          26.750  
                                                                
  23331334.358    23331334.568   124894505.849 6      2967.098          37.250  
  23331347.988    23331350.068    97140167.439 5      2307.750          33.750  
                                                                
  23440334.495    23440462.765   125302074.057 4     -3184.738          24.250  
  23440350.775                                                                  
                                                                
  22057938.399    22057939.049   118036449.368 6     -4241.595          39.250  
  22057946.349    22057946.599    91806128.238 6     -3299.061          39.750  
                                                                
  23301909.477    23301910.657   122452356.636 2     -1646.952          15.000  
  23301907.407    23301909.917    95417429.957 2     -1283.289          15.000  
                                                                
  20234558.731    20234560.061   108089368.893 7     -3702.088          45.500  
  20234567.971    20234569.581    84069511.176 7     -2879.393          43.750  
                                                                
  22585141.175    22585142.065   118685703.555 5     -3428.661          30.250  
  22585142.395    22585143.135    92482369.313 5     -2671.708          30.250  
                                                                
  24008649.889    24008650.369   128294913.744 7     -5587.175          43.750  
  24008655.709    24008665.049    99784952.226 4     -4345.603          28.250  
                                                                
  23179559.258    23179558.068   121809387.421 5     -4362.192          31.500  
  23179566.638    23179565.528    94916403.815 5     -3399.160          31.500  
  23179568.788    90961551.458 8     -3257.460          51.000  
  20609249.125    20609248.365   110052236.702 7       697.942          44.750  
  20609256.745    20609256.585    85596179.050 7       542.834          42.750  
                                                                
  23339090.208    23339090.088   122647758.767 3      2359.544          20.500  
                  23339092.218    95569679.629 3      1838.521          20.500  
                                                                
  19303944.153    19303944.123   103045754.287 8     -1709.304          52.500  
  19303951.033    19303950.633    80146698.068 8     -1329.444          48.250  
                                                                
  20582716.692    20582716.282   108162899.072 7     -2424.661          44.000  
  20582717.452    20582717.092    84282779.972 7     -1889.356          44.000  
                                                                
  21673905.630    21673905.140   113897145.997 6      1016.083          40.250  
                  21673905.920    88751025.507 6       791.768          40.250  
                                                                
  21326879.240    21326880.490   114084424.620 7      1811.318          42.250  
  21326888.650    21326889.470    88732327.474 6      1408.752          37.500  
                                                                
  22023407.260    22023405.040   117521145.373 6       415.551          37.750  
  22023410.670    22023412.730    91405339.626 5       323.166          30.500  
                                                                
 14 10 17  8  3 20.0000000  0 16G 3R 7R 5R21G 5R12G31R11G25R13G16R22-0.000178342
                                G29G21R23R 6
  21343309.740    21343309.460   112159848.945 4      1255.557          26.750  
                  21343310.440    87397287.360 4       978.261          26.750  
                                                                
  23328564.801    23328564.871   124879671.283 6      2966.461          38.500  
  23328576.401    23328578.811    97128629.512 5      2307.239          34.500  
                                                                
  23443314.627    23443435.437   125318004.328 5     -3187.691          31.500  
                                                                                
                                                                
  22061899.440    22061901.600   118057657.159 6     -4241.662          39.250  
  22061908.560    22061910.150    91822623.173 6     -3298.918          40.250  
                                                                
  23303477.511    23303478.191   122460597.326 2     -1649.640          15.750  
  23303476.951    23303479.301    95423851.228 2     -1285.652          15.750  
                                                                
  20238026.761    20238025.621   108107886.249 7     -3705.110          44.500  
  20238035.611    20238035.571    84083913.542 7     -2881.734          43.750  
                                                                
  22588404.389    22588404.599   118702850.036 5     -3430.156          31.000  
  22588407.669    22588407.339    92495730.174 5     -2672.787          31.000  
                                                                
  24013877.732    24013877.372   128322847.664 7     -5586.760          42.000  
  24013895.632    24013890.482    99806678.547 4     -4345.364          26.500  
                                                                
  23183708.491    23183708.071   121831198.987 5     -4362.663          30.500  
  23183718.011    23183716.931    94933399.796 5     -3399.594          30.500  
  23183719.761    90977839.259 8     -3257.885          51.250  
  20608596.096    20608596.886   110048755.470 7       694.261          44.500  
  20608605.276    20608604.006    85593471.421 7       539.931          42.750  
                                                                
  23336845.302    23336844.852   122635961.752 3      2359.041          20.500  
                  23336848.052    95560487.142 3      1838.199          20.500  
                                                                
  19305546.501    19305545.881   103054304.740 8     -1711.152          52.750  
  19305552.161    19305552.551    80153348.408 8     -1330.947          48.750  
                                                                
  20585023.763    20585023.473   108175024.354 7     -2425.772          43.750  
  20585024.683    20585024.243    84292228.226 7     -1890.231          43.750  
                                                                
  21672939.582    21672938.732   113892068.588 6      1014.675          40.250  
                  21672939.752    88747069.093 6       790.640          40.250  
                                                                
  21325187.481    21325188.441   114075369.305 7      1810.366          43.500  
  21325197.941    21325196.161    88725284.450 6      1408.021          37.500  
                                                                
  22023017.887    22023019.177   117519075.404 6       412.174          39.750  
  22023028.217    22023025.167    91403729.633 5       320.581          31.500  
                                                                
 14 10 17  8  3 25.0000000  0 16G 3R 7R 5R21G 5R12G31R11G25R13G16R22-0.000175504
                                G29G21R23R 6
  21342114.510    21342116.070   112153578.228 4      1252.751          26.500  
                  21342117.110    87392401.080 4       976.117          26.500  
                                                                
  23325795.264    23325794.044   124864842.902 6      2964.982          37.500  
  23325809.954    23325807.494    97117096.350 5      2306.143          34.750  
                                                                
  23446301.543    23446423.223   125333952.979 5     -3191.555          30.250  
  23446322.983                                                                  
                                                                
  22065866.225    22065866.305   118078868.235 6     -4242.600          40.000  
  22065874.815    22065873.655    91839120.635 6     -3299.829          39.500  
                                                                
  23305048.175    23305049.125   122468854.291 2     -1653.010          15.750  
  23305051.265    23305050.125    95430285.161 2     -1288.147          15.750  
                                                                
  20241495.024    20241496.124   108126422.263 7     -3709.073          45.500  
  20241504.464    20241505.204    84098330.431 7     -2884.862          43.250  
                                                                
  22591669.207    22591669.307   118720006.858 5     -3432.341          30.000  
  22591669.317    22591671.057    92509099.109 5     -2674.588          30.000  
                                                                
  24019103.178    24019103.978   128350781.886 7     -5586.866          42.500  
  24019119.598    24019117.348    99828405.223 4     -4345.347          28.750  
                                                                
  23187861.228    23187859.428   121853016.388 5     -4364.174          30.500  
  23187869.948    23187868.158    94950400.339 5     -3400.732          30.500  
  23187871.238    90994131.419 8     -3259.009          51.500  
  20607948.670    20607948.540   110045295.949 7       689.625          44.500  
  20607956.120    20607955.920    85590780.680 6       536.346          41.500  
                                                                
  23334602.180    23334601.630   122624169.796 3      2357.764          22.000  
                  23334603.040    95551298.640 3      1837.150          22.000  
                                                                
  19307150.424    19307150.154   103062867.242 8     -1713.770          53.000  
  19307156.794    19307156.744    80160008.137 8     -1332.945          48.500  
                                                                
  20587333.259    20587332.849   108187158.201 7     -2427.643          45.000  
  20587333.909    20587333.359    84301683.170 7     -1891.651          45.000  
                                                                
  21671974.949    21671974.439   113887001.202 6      1012.469          40.000  
                  21671975.189    88743120.478 6       788.929          40.000  
                                                                
  21323496.750    21323496.920   114066322.321 7      1808.340          43.750  
  21323503.480    21323505.380    88718247.905 6      1406.536          37.750  
                                                                
  22022634.066    22022632.116   117517025.996 6       407.781          38.750  
  22022641.366    22022643.676    91402135.653 5       317.164          33.750  
                                                                
 14 10 17  8  3 30.0000000  0 16G 3R 7R 5R21G 5R12G31R11G25R13G16R22-0.000172667
                                G29G21R23R 6
  21340925.868    21340924.808   112147321.570 4      1249.582          27.000  
                  21340926.408    87387525.774 4       973.672          27.000  
                                                                
  23323025.356    23323025.636   124850021.645 6      2963.315          38.000  
  23323036.266    23323038.066    97105568.776 5      2304.851          34.000  
                                                                
  23449288.444    23449408.864   125349920.172 4     -3195.523          26.750  
  23449357.114                                                                  
                                                                
  22069824.798    22069826.198   118100083.315 6     -4243.611          38.250  
  22069837.538    22069837.768    91855621.240 6     -3300.405          38.750  
                                                                
  23306622.880    23306623.120   122477128.418 2     -1656.747          15.750  
  23306625.430    23306622.560    95436732.552 2     -1291.007          15.750  
                                                                
  20244970.575    20244969.015   108144977.891 7     -3713.463          45.500  
  20244978.275    20244979.265    84112762.572 7     -2888.249          43.250  
                                                                
  22594936.588    22594935.208   118737174.836 5     -3435.060          30.250  
  22594939.148    22594936.748    92522476.766 5     -2676.629          30.250  
                                                                
  24024331.483    24024331.913   128378717.239 7     -5587.359          42.500  
  24024345.763    24024346.513    99850132.735 4     -4345.722          29.750  
                                                                
  23192013.053    23192012.763   121874840.340 4     -4365.674          29.250  
  23192021.693    23192021.473    94967405.986 4     -3401.819          29.250  
  23192023.983    91010428.510 8     -3260.127          51.000  
  20607305.013    20607305.133   110041858.918 7       684.829          44.500  
  20607312.493    20607312.903    85588107.439 6       532.638          41.000  
                                                                
  23332357.454    23332359.854   122612383.830 3      2356.155          23.250  
                  23332360.984    95542114.767 3      1835.889          23.250  
                                                                
  19308756.289    19308756.659   103071442.726 8     -1716.746          53.250  
  19308763.489    19308762.999    80166677.941 8     -1335.198          48.750  
                                                                
  20589643.819    20589643.499   108199301.453 7     -2429.986          45.000  
  20589644.709    20589644.219    84311145.431 7     -1893.497          45.000  
                                                                
  21671012.321    21671012.211   113881944.669 6      1009.859          40.000  
                  21671012.981    88739180.325 6       786.897          40.000  
                                                                
  21321806.368    21321806.808   114057284.753 7      1806.241          44.250  
  21321813.838    21321815.318    88711218.673 6      1404.873          38.000  
                                                                
  22022254.010    22022252.790   117514997.949 6       403.244          37.500  
  22022260.820    22022261.870    91400558.297 5       313.676          32.250  
                                                                
 14 10 17  8  3 35.0000000  0 16G 3R 7R 5R21G 5R12G31R11G25R13G16R22-0.000169828
                                G29G21R23R 6
  21339737.737    21339737.037   112141077.842 4      1246.785          27.750  
                  21339739.427    87382660.532 4       971.531          27.750  
                                                                
  23320261.047    23320259.247   124835206.307 6      2961.794          38.250  
  23320272.127    23320272.517    97094045.762 5      2303.665          33.750  
                                                                
  23452261.690                                       -3199.644                  
  23452371.980    23452407.850    97506736.536 4     -2488.829          27.250  
                                                                
  22073792.602    22073791.322   118121301.234 6     -4244.526          36.000  
  22073802.862    22073803.232    91872124.076 6     -3301.263          38.000  
                                                                
  23308199.347    23308197.957   122485418.718 2     -1660.206          15.750  
  23308199.957    23308201.177    95443192.517 2     -1293.688          15.750  
                                                                
  20248446.752    20248446.852   108163551.857 7     -3717.292          45.500  
  20248457.102    20248456.952    84127208.974 7     -2891.213          43.750  
                                                                
  22598205.069    22598204.719   118754352.855 5     -3437.383          30.250  
  22598207.419    22598206.149    92535862.166 5     -2678.517          30.250  
                                                                
  24029560.236    24029559.926   128406652.563 7     -5587.601          42.500  
  24029570.346    24029574.186    99871861.080 5     -4346.015          30.500  
                                                                
  23196167.613    23196166.773   121896669.775 5     -4367.075          30.500  
  23196175.713    23196175.993    94984415.892 5     -3402.902          30.500  
  23196177.913    91026729.674 8     -3261.092          49.250  
  20606664.395    20606665.535   110038443.138 7       680.455          44.000  
  20606671.765    20606672.455    85585450.734 6       529.211          41.250  
                                                                
  23330118.505    23330117.035   122600602.634 3      2355.054          23.250  
                  23330118.105    95532934.612 3      1835.021          23.250  
                                                                
  19310365.797    19310364.807   103080029.928 8     -1719.241          52.750  
  19310371.657    19310371.557    80173356.878 8     -1337.180          48.750  
                                                                
  20591956.121    20591955.961   108211452.918 7     -2431.717          45.250  
  20591957.131    20591956.391    84320614.091 7     -1894.843          45.250  
                                                                
  21670052.176    21670051.596   113876897.814 6      1007.738          39.750  
                  21670052.996    88735247.725 6       785.239          39.750  
                                                                
  21320119.301    21320119.441   114048255.315 7      1804.384          44.750  
  21320129.821    21320127.041    88704195.794 6      1403.389          38.750  
                                                                
  22021877.129    22021877.199   117512990.234 6       398.787          38.750  
  22021887.799    22021884.829    91398996.712 5       310.241          32.250  
                                                                
 14 10 17  8  3 40.0000000  0 16G 3R 7R 5R21G 5R12G31R11G25R13G16R22-0.000166991
                                G29G21R23R 6
  21338552.199    21338552.139   112134846.994 4      1244.600          27.750  
                  21338551.729    87377805.332 4       969.841          27.750  
                                                                
  23317490.015    23317492.155   124820396.647 6      2961.060          39.500  
  23317505.425    23317506.705    97082527.217 5      2303.099          34.500  
                                                                
  23455271.420    23455382.250   125381912.164 3     -3202.464          21.000  
  23455350.490    23455394.840    97519184.200 4     -2490.599          25.750  
                                                                
  22077752.516    22077756.036   118142522.008 5     -4244.333          32.250  
  22077768.656    22077768.456    91888629.134 6     -3300.986          37.500  
                                                                
  23309781.235    23309779.385   122493724.829 2     -1662.962          16.000  
  23309780.425    23309782.235    95449664.826 2     -1295.619          16.000  
                                                                
  20251927.136    20251927.166   108182144.065 7     -3720.550          45.750  
  20251936.886    20251937.046    84141669.570 7     -2893.765          43.250  
                                                                
  22601475.763    22601475.223   118771540.760 5     -3438.909          30.250  
  22601478.183    22601477.503    92549255.353 5     -2679.642          30.250  
                                                                
  24034788.337    24034787.677   128434587.588 6     -5587.258          39.000  
  24034802.047    24034802.987    99893588.137 5     -4345.761          32.000  
                                                                
  23200322.119    23200322.189   121918504.564 4     -4367.810          29.500  
  23200331.399    23200331.309    95001430.003 4     -3403.463          29.500  
  23200333.159    91043034.819 8     -3261.674          50.750  
  20606029.432    20606029.702   110035048.616 7       676.420          44.250  
  20606037.472    20606037.282    85582810.551 7       526.093          42.750  
                                                                
  23327876.510    23327875.240   122588826.255 3      2354.483          23.750  
                  23327876.820    95523758.219 3      1834.586          23.750  
                                                                
  19311976.141    19311975.831   103088628.817 8     -1721.283          53.000  
  19311981.951    19311982.321    80180044.891 8     -1338.774          48.000  
                                                                
  20594270.357    20594269.767   108223612.590 7     -2433.083          44.750  
  20594270.867    20594270.377    84330089.156 7     -1895.909          44.750  
                                                                
  21669093.683    21669092.873   113871860.642 6      1006.194          39.750  
                  21669094.663    88731322.656 6       784.066          39.750  
                                                                
  21318431.700    21318433.460   114039233.981 7      1803.161          44.750  
  21318441.630    21318441.020    88697179.189 6      1402.501          38.750  
                                                                
  22021507.629    22021503.559   117511002.709 6       395.215          38.000  
  22021518.189    22021512.949    91397450.877 5       307.447          31.750  
                                                                
 14 10 17  8  3 45.0000000  0 16G 3R 7R 5R21G 5R12G31R11G25R13G16R22-0.000164154
                                G29G21R23R 6
  21337367.269    21337367.119   112128629.138 4      1241.897          27.750  
                  21337370.349    87372960.243 4       967.629          27.750  
                                                                
  23314727.541    23314725.601   124805592.931 6      2959.866          39.500  
  23314740.441    23314738.991    97071013.260 5      2302.217          34.000  
                                                                
  23458272.391    23458385.871   125397931.858 4     -3205.914          25.500  
  23458426.461    23458391.911    97531645.393 4     -2493.560          28.000  
                                                                
  22081723.456    22081723.976   118163745.756 5     -4245.263          34.000  
  22081735.176    22081734.596    91905136.469 6     -3301.721          38.000  
                                                                
  23311360.386    23311363.256   122502046.991 2     -1666.274          16.000  
  23311362.646    23311365.176    95456149.632 2     -1298.371          16.000  
                                                                
  20255410.739    20255411.679   108200754.730 7     -3724.227          46.000  
  20255419.159    20255421.719    84156144.517 7     -2896.614          43.500  
                                                                
  22604748.369    22604747.849   118788738.694 4     -3440.969          29.750  
  22604749.119    22604749.219    92562656.330 4     -2681.290          29.750  
                                                                
  24040014.862    24040016.072   128462522.461 6     -5587.272          40.000  
  24040029.802    24040031.142    99915315.219 5     -4345.660          31.000  
                                                                
  23204478.124    23204478.074   121940344.850 4     -4368.917          29.000  
  23204487.784    23204487.294    95018448.345 4     -3404.477          29.000  
  23204489.164    91059344.093 8     -3262.516          50.750  
  20605398.467    20605398.987   110031675.617 7       672.149          44.250  
  20605406.357    20605405.377    85580187.101 6       522.820          41.500  
                                                                
  23325636.383    23325635.703   122577054.730 3      2353.543          23.750  
                  23325636.623    95514585.599 3      1833.913          23.750  
                                                                
  19313588.914    19313588.844   103097239.603 8     -1723.642          53.000  
  19313595.344    19313595.454    80186742.174 7     -1340.616          47.750  
                                                                
  20596585.529    20596585.349   108235780.517 7     -2434.754          45.000  
  20596586.219    20596585.849    84339570.648 7     -1897.220          45.000  
                                                                
  21668137.132    21668136.242   113866833.218 6      1004.223          40.000  
                  21668137.432    88727405.187 6       782.518          40.000  
                                                                
  21316748.830    21316748.640   114030220.768 7      1801.542          46.000  
  21316754.960    21316756.180    88690168.915 6      1401.210          38.750  
                                                                
  22021135.097    22021135.797   117509035.582 5       391.304          35.750  
  22021147.017    22021143.817    91395920.885 5       304.431          33.500  
                                                                
 14 10 17  8  3 50.0000000  0 16G 3R 7R 5R21G 5R12G31R11G25R13G16R22-0.000161313
                                G29G21R23R 6
  21336188.629    21336186.939   112122424.311 4      1239.872          29.250  
                  21336189.899    87368125.332 4       966.156          29.250  
                                                                
  23311958.025    23311960.615   124790795.446 6      2958.983          38.750  
  23311976.885    23311974.195    97059504.145 5      2301.418          33.000  
                                                                
  23461270.160    23461385.240   125413968.635 4     -3209.023          27.500  
  23461363.700    23461387.950    97544118.757 4     -2495.825          27.000  
                                                                
  22085689.329    22085695.249   118184971.366 4     -4245.295          25.250  
  22085700.729    22085701.429    91921647.062 6     -3302.451          37.500  
                                                                
  23312949.490    23312950.020   122510385.280 2     -1669.140          16.000  
  23312952.830    23312948.860    95462646.966 2     -1300.585          16.000  
                                                                
  20258899.876    20258899.016   108219383.786 7     -3727.538          45.750  
  20258907.956    20258908.986    84170633.759 7     -2899.166          43.500  
                                                                
  22608022.193    22608021.013   118805946.690 4     -3442.461          29.500  
  22608023.943    22608024.483    92576065.104 4     -2682.455          29.500  
                                                                
  24045245.392    24045242.362   128490457.347 6     -5586.930          38.500  
  24045256.222    24045258.722    99937042.552 5     -4345.265          32.000  
                                                                
  23208635.661    23208635.441   121962190.609 4     -4369.495          29.000  
  23208643.991    23208643.621    95035471.007 4     -3404.824          29.000  
  23208645.971    91075657.473 8     -3262.926          49.750  
  20604770.120    20604770.550   110028323.962 7       668.385          44.000  
  20604777.660    20604778.080    85577580.264 7       519.895          42.000  
                                                                
  23323397.392    23323396.582   122565288.099 3      2352.999          23.500  
                  23323397.532    95505416.856 3      1833.493          23.500  
                                                                
  19315204.495    19315204.355   103105862.187 8     -1725.441          53.000  
  19315210.675    19315210.695    80193448.623 8     -1341.956          48.250  
                                                                
  20598902.130    20598902.430   108247956.761 7     -2435.909          44.500  
  20598903.490    20598903.140    84349058.623 7     -1898.082          44.500  
                                                                
  21667182.880    21667182.310   113861815.605 6      1002.745          40.000  
                  21667182.290    88723495.366 6       781.359          40.000  
                                                                
  21315065.043    21315064.393   114021215.892 7      1800.386          45.250  
  21315072.123    21315072.653    88683165.120 6      1400.266          37.250  
                                                                
  22020765.648    22020769.128   117507088.906 5       387.786          34.250  
  22020778.078    22020779.788    91394406.816 5       301.419          34.000  
                                                                
 14 10 17  8  3 55.0000000  0 16G 3R 7R 5R21G 5R12G31R11G25R13G16R22-0.000158482
                                G29G21R23R 6
  21335010.268    21335008.458   112116231.693 4      1237.266          29.250  
                  21335010.818    87363299.915 4       964.089          29.250  
                                                                
  23309197.147    23309197.137   124776003.173 6      2957.925          39.250  
  23309212.227    23309210.917    97047999.121 5      2300.656          32.500  
                                                                
  23464273.471    23464390.401   125430022.447 4     -3212.207          29.000  
  23464317.281    23464390.611    97556605.055 4     -2498.281          29.750  
                                                                
  22089658.126    22089661.216   118206200.232 6     -4245.911          37.250  
  22089669.246    22089668.656    91938158.318 6     -3302.390          37.500  
                                                                
  23314541.787    23314538.677   122518738.732 2     -1672.238          16.000  
  23314543.087    23314539.957    95469156.167 2     -1303.169          16.000  
                                                                
  20262389.937    20262389.307   108238030.342 7     -3731.128          45.250  
  20262399.137    20262399.187    84185136.618 7     -2902.013          44.000  
                                                                
  22611299.839    22611298.459   118823163.875 5     -3444.299          30.000  
  22611299.029    22611300.949    92589481.066 5     -2683.967          30.000  
                                                                
  24050472.285    24050471.035   128518391.376 6     -5586.906          41.000  
  24050486.445    24050485.145    99958768.900 5     -4345.484          32.250  
                                                                
  23212794.280    23212792.980   121984041.033 4     -4370.542          29.000  
  23212800.970    23212800.630    95052497.279 4     -3405.661          29.000  
  23212803.990    91091974.333 8     -3263.693          49.750  
  20604147.419    20604146.689   110024992.967 7       664.133          44.000  
  20604151.249    20604153.739    85574989.483 7       516.492          42.000  
                                                                
  23321158.875    23321156.325   122553525.623 3      2352.086          23.500  
                  23321161.115    95496251.296 3      1832.821          23.500  
                                                                
  19316822.073    19316821.433   103114495.802 8     -1727.841          52.750  
  19316828.023    19316828.273    80200163.658 8     -1343.847          48.000  
                                                                
  20601221.060    20601220.980   108260140.502 7     -2437.561          45.250  
  20601221.940    20601221.490    84358552.426 7     -1899.406          45.250  
                                                                
  21666229.618    21666228.318   113856806.999 6      1000.826          39.750  
                  21666229.818    88719592.558 6       779.890          39.750  
                                                                
  21313381.657    21313382.247   114012218.412 7      1798.666          44.500  
  21313389.257    21313390.487    88676167.083 6      1398.877          37.500  
                                                                
  22020408.757    22020408.837   117505161.974 5       383.532          34.000  
  22020412.507    22020416.027    91392908.057 5       298.297          32.750  
                                                                
 14 10 17  8  4  0.0000000  0 16G 3R 7R 5R21G 5R12G31R11G25R13G16R22-0.000155647
                                G29G21R23R 6
  21333834.512    21333832.002   112110050.712 4      1235.015          29.500  
                  21333833.392    87358483.579 4       962.403          29.500  
                                                                
  23306439.967    23306434.537   124761215.412 6      2957.107          40.000  
  23306448.077    23306450.077    97036497.547 5      2299.916          34.250  
                                                                
  23467281.508    23467387.978   125446091.926 5     -3215.524          31.500  
  23467276.538    23467399.498    97569103.889 4     -2500.920          28.000  
                                                                
  22093624.077    22093626.707   118227430.616 6     -4246.146          37.500  
  22093634.597    22093635.327    91954670.820 6     -3302.603          37.250  
                                                                
  23316132.632    23316128.562   122527106.857 2     -1675.073          16.000  
  23316134.512    23316132.482    95475676.757 2     -1305.196          16.000  
                                                                
  20265883.848    20265883.248   108256693.797 7     -3734.333          45.250  
  20265891.458    20265893.298    84199652.630 7     -2904.505          43.500  
                                                                
  22614577.473    22614576.833   118840389.704 5     -3446.010          31.250  
  22614579.273    22614580.143    92602903.800 5     -2685.212          31.250  
                                                                
  24055700.864    24055698.494   128546323.817 6     -5586.247          39.750  
  24055713.044    24055711.774    99980494.132 5     -4344.937          30.750  
                                                                
  23216952.060    23216952.900   122005895.602 4     -4371.365          29.750  
  23216960.510    23216959.830    95069526.783 4     -3406.382          29.750  
  23216962.520    91108294.249 8     -3264.373          49.250  
  20603527.493    20603526.033   110021682.100 7       660.279          43.250  
  20603535.273    20603534.463    85572414.367 7       513.637          42.000  
                                                                
  23318919.923    23318919.563   122541766.618 3      2351.439          23.000  
                  23318921.623    95487088.468 3      1832.393          23.000  
                                                                
  19318441.639    19318440.789   103123139.759 8     -1729.845          53.000  
  19318447.569    19318447.379    80206886.731 7     -1345.436          47.750  
                                                                
  20603540.947    20603540.377   108272331.098 7     -2438.797          44.750  
  20603542.297    20603541.497    84368051.593 7     -1900.366          44.750  
                                                                
  21665278.212    21665276.732   113851806.783 6       999.228          39.500  
                  21665278.432    88715696.289 6       778.599          39.500  
                                                                
  21311702.330    21311700.590   114003227.839 7      1797.422          43.500  
  21311711.640    21311710.770    88669174.437 6      1397.963          37.000  
                                                                
  22020051.543    22020051.883   117503253.773 5       379.673          33.500  
  22020064.103    22020062.113    91391423.897 5       295.227          33.250  
                                                                
 14 10 17  8  4  5.0000000  0 16G 3R 7R 5R21G 5R12G31R11G25R13G16R22-0.000152806
                                G29G21R23R 6
  21332659.175    21332658.955   112103883.197 4      1232.265          29.250  
                  21332660.675    87353677.710 4       960.252          29.250  
                                                                
  23303675.638    23303673.298   124746434.318 6      2955.670          40.000  
  23303687.718    23303688.058    97025001.238 5      2298.923          34.500  
                                                                
  23470289.883    23470382.243   125462179.688 5     -3219.196          31.250  
  23470289.823    23470413.293    97581616.593 4     -2503.712          27.750  
                                                                
  22097594.996    22097594.766   118248664.360 6     -4247.058          38.250  
  22097604.166    22097604.086    91971185.914 6     -3303.164          37.250  
                                                                
  23317726.677    23317725.857   122535491.429 2     -1678.493          12.250  
  23317731.617    23317729.267    95482210.164 2     -1307.968          12.250  
                                                                
  20269379.575    20269381.105   108275375.989 7     -3738.169          45.500  
  20269388.675    20269390.165    84214183.215 7     -2907.385          43.000  
                                                                
  22617857.838    22617856.818   118857625.951 5     -3448.212          30.000  
  22617860.518    22617858.628    92616334.597 5     -2686.900          30.000  
                                                                
  24060924.921    24060923.411   128574256.510 6     -5586.915          37.750  
  24060942.631    24060940.041   100002219.610 5     -4345.414          34.250  
                                                                
  23221113.077    23221112.067   122027756.010 4     -4372.609          28.750  
  23221120.217    23221119.377    95086560.845 4     -3407.175          28.750  
  23221122.807    91124618.570 8     -3265.204          49.500  
  20602910.982    20602910.172   110018393.048 7       655.824          42.750  
  20602917.652    20602918.032    85569856.226 6       510.177          41.250  
                                                                
  23316684.169    23316683.709   122530013.023 3      2350.315          23.500  
                  23316685.809    95477929.822 3      1831.492          23.500  
                                                                
  19320063.732    19320062.552   103131795.954 8     -1732.356          53.000  
  19320068.302    19320069.222    80213619.319 8     -1347.351          48.000  
                                                                
  20605862.180    20605862.010   108284530.390 7     -2440.607          45.000  
  20605863.590    20605862.870    84377557.509 7     -1901.740          45.000  
                                                                
  21664328.164    21664326.974   113846816.766 6       997.085          39.500  
                  21664328.444    88711807.960 6       776.947          39.500  
                                                                
  21310022.779    21310021.759   113994245.928 7      1795.476          42.750  
  21310029.979    21310031.789    88662188.532 6      1396.547          38.250  
                                                                
  22019700.534    22019696.964   117501366.351 5       375.591          32.750  
  22019708.834    22019706.364    91389955.937 5       292.115          32.000  
                                                                
 14 10 17  8  4 10.0000000  0 16G 3R 7R 5R21G 5R12G31R11G25R13G16R22-0.000149970
                                G29G21R23R 6
  21331489.451    21331487.491   112097729.211 4      1229.450          29.500  
                  21331488.731    87348882.395 4       958.037          29.500  
                                                                
  23300915.143    23300913.223   124731659.889 6      2954.189          40.000  
  23300929.383    23300928.053    97013510.089 5      2297.750          33.750  
                                                                
  23473303.367    23473381.847   125478285.352 4     -3222.833          25.500  
  23473311.067    23473426.667    97594144.840 4     -2506.605          27.750  
                                                                
  22101560.285    22101563.955   118269901.441 6     -4247.916          38.750  
  22101573.145    22101572.815    91987703.639 6     -3303.992          36.750  
                                                                
  23319324.765    23319324.655   122543892.386 2     -1681.926          12.250  
  23319329.835    23319326.925    95488756.339 2     -1310.619          12.250  
                                                                
  20272879.636    20272881.576   108294076.992 7     -3742.005          45.250  
  20272889.186    20272890.796    84228728.418 7     -2910.414          43.500  
                                                                
  22621138.856    22621138.186   118874872.596 5     -3450.407          31.250  
  22621141.376    22621140.666    92629773.527 5     -2688.751          31.250  
                                                                
  24066149.365    24066150.415   128602189.436 6     -5586.528          36.500  
  24066169.525    24066166.925   100023946.270 6     -4345.002          36.500  
                                                                
  23225273.567    23225273.607   122049622.323 4     -4373.888          28.250  
  23225281.587    23225280.187    95103599.505 4     -3408.269          28.250  
  23225283.467    91140947.278 8     -3266.266          48.250  
  20602299.612    20602298.582   110015125.923 7       651.100          42.750  
  20602305.612    20602305.822    85567315.126 6       506.391          41.250  
                                                                
  23314449.214    23314447.774   122518264.837 4      2349.099          24.500  
                  23314450.404    95468775.367 4      1830.453          24.500  
                                                                
  19321686.620    19321686.430   103140464.369 8     -1734.925          52.750  
  19321692.120    19321692.950    80220361.411 8     -1349.371          48.000  
                                                                
  20608185.308    20608185.028   108296738.421 7     -2442.493          44.750  
  20608186.978    20608185.918    84387070.263 7     -1903.233          44.750  
                                                                
  21663380.601    21663379.531   113841836.985 6       994.920          39.250  
                  21663380.711    88707927.621 6       775.260          39.250  
                                                                
  21308345.135    21308345.195   113985272.862 7      1793.658          44.000  
  21308352.595    21308354.715    88655209.467 6      1395.032          38.250  
                                                                
  22019348.889    22019350.629   117499499.858 6       371.233          36.000  
  22019359.539    22019356.779    91388504.187 5       288.750          31.500  
                                                                
 14 10 17  8  4 15.0000000  0 16G 3R 7R 5R21G 5R12G31R11G25R13G16R22-0.000147135
                                G29G21R23R 6
  21330320.560    21330318.570   112091588.755 4      1226.381          28.750  
                  21330320.790    87344097.628 4       955.664          28.750  
                                                                
  23298153.992    23298154.462   124716892.028 6      2952.472          40.000  
  23298164.592    23298169.242    97002024.020 5      2296.342          33.250  
                                                                
  23476318.248    23476410.268   125494409.575 5     -3226.783          30.500  
  23476331.798    23476445.358    97606685.518 4     -2509.864          27.000  
                                                                
  22105530.886    22105533.286   118291141.854 6     -4248.817          40.000  
  22105543.156    22105540.536    92004223.922 5     -3304.660          34.750  
                                                                
  23320928.040    23320926.330   122552309.893 2     -1685.245          12.250  
  23320930.680    23320930.560    95495315.458 2     -1313.164          12.250  
                                                                
  20276385.985    20276385.695   108312796.839 7     -3746.162          45.500  
  20276394.665    20276395.885    84243288.283 7     -2913.683          43.000  
                                                                
  22624423.026    22624422.456   118892129.696 5     -3452.743          30.250  
  22624424.746    22624423.126    92643220.607 5     -2690.424          30.250  
                                                                
  24071382.351    24071379.021   128630122.897 6     -5587.220          38.000  
  24071396.131    24071394.511   100045672.248 5     -4345.789          35.500  
                                                                
  23229436.092    23229435.462   122071494.607 4     -4375.396          28.250  
  23229443.822    23229443.422    95120642.824 4     -3409.366          28.250  
  23229445.442    91157280.416 8     -3267.352          48.250  
  20601692.595    20601691.105   110011880.608 7       646.528          43.250  
  20601698.185    20601698.105    85564790.988 6       502.898          41.500  
                                                                
  23312214.123    23312213.123   122506522.074 4      2347.658          24.500  
                  23312216.063    95459625.184 4      1829.371          24.500  
                                                                
  19323313.072    19323312.682   103149145.192 8     -1737.761          53.000  
  19323318.172    19323318.882    80227113.163 8     -1351.551          48.000  
                                                                
  20610510.088    20610510.068   108308955.201 7     -2444.561          45.500  
  20610511.648    20610510.908    84396589.814 7     -1904.833          45.500  
                                                                
  21662434.923    21662433.813   113836867.479 6       992.550          39.250  
                  21662435.053    88704055.297 6       773.430          39.250  
                                                                
  21306668.488    21306670.028   113976308.422 7      1791.646          45.250  
  21306676.628    21306679.178    88648237.147 6      1393.498          37.500  
                                                                
  22019001.447    22019003.117   117497654.420 5       366.635          35.000  
  22019006.127    22019011.997    91387068.883 5       285.298          31.750  
                                                                
 14 10 17  8  4 20.0000000  0 16G 3R 7R 5R21G 5R12G31R11G25R13G16R22-0.000144299
                                G29G21R23R 6
  21329155.060    21329153.430   112085463.181 4      1223.927          28.500  
                  21329155.760    87339324.457 4       953.684          28.500  
                                                                
  23295395.038    23295397.768   124702132.149 6      2951.371          40.750  
  23295411.358    23295412.738    96990544.193 5      2295.498          35.500  
                                                                
  23479341.640    23479427.260   125510552.576 5     -3230.311          30.250  
  23479350.400    23479460.870    97619242.668 3     -2512.583          23.000  
                                                                
  22109501.724    22109501.844   118312387.071 6     -4249.329          41.250  
  22109509.174    22109509.274    92020747.971 5     -3305.019          33.750  
                                                                
  23322537.515    23322532.825   122560745.305 2     -1688.754          12.250  
  23322535.125    23322534.755    95501888.514 2     -1315.868          12.250  
                                                                
  20279895.517    20279893.977   108331536.762 7     -3749.723          45.500  
  20279902.617    20279903.557    84257863.756 7     -2916.478          42.750  
                                                                
  22627708.658    22627709.148   118909398.547 5     -3454.715          30.500  
  22627711.898    22627711.508    92656676.854 5     -2691.982          30.500  
                                                                
  24076610.689    24076604.859   128658057.920 6     -5586.840          36.750  
  24076621.509    24076621.999   100067400.437 5     -4345.185          35.750  
                                                                
  23233600.098    23233599.718   122093374.116 4     -4376.428          28.500  
  23233607.408    23233606.108    95137691.758 4     -3410.153          28.500  
  23233609.128    91173618.989 8     -3268.136          48.500  
  20601087.695    20601087.695   110008658.764 7       642.385          43.250  
  20601096.345    20601094.865    85562285.106 7       499.692          42.000  
                                                                
  23309979.995    23309981.115   122494786.075 4      2346.777          25.250  
                  23309983.815    95450480.244 4      1828.540          25.250  
                                                                
  19324942.081    19324941.291   103157839.610 8     -1739.973          52.750  
  19324947.661    19324947.831    80233875.478 8     -1353.301          48.000  
                                                                
  20612836.585    20612836.745   108321182.056 7     -2446.180          45.000  
  20612838.145    20612837.525    84406117.216 7     -1906.135          45.000  
                                                                
  21661491.749    21661490.389   113831909.608 6       990.673          39.500  
                  21661491.759    88700192.021 6       771.914          39.500  
                                                                
  21304992.777    21304994.997   113967354.189 7      1790.061          44.500  
  21305003.307    21305005.147    88641272.735 6      1392.305          37.500  
                                                                
  22018664.514    22018663.344   117495831.163 5       362.965          35.750  
  22018667.524    22018668.714    91385650.799 5       282.382          30.250  
                                                                
 14 10 17  8  4 25.0000000  0 16G 3R 7R 5R21G 5R12G31R11G25R13G16R22-0.000141463
                                G29G21R23R 6
  21327992.087    21327989.987   112079350.277 4      1221.280          28.250  
                  21327991.367    87334561.117 4       951.571          28.250  
                                                                
  23292642.142    23292641.422   124687377.905 6      2950.282          41.250  
  23292654.632    23292656.322    96979068.734 6      2294.635          36.000  
                                                                
  23482361.629    23482462.299   125526712.009 5     -3233.557          31.750  
  23482372.219    23482485.409    97631812.482 3     -2514.100          22.250  
                                                                
  22113472.931    22113473.051   118333634.627 6     -4249.731          41.000  
  22113480.731    22113482.131    92037273.819 5     -3305.305          33.750  
                                                                
  23324142.427    23324142.117   122569196.271 2     -1691.588          13.000  
  23324144.567    23324142.687    95508473.628 2     -1318.066          13.000  
                                                                
  20283405.392    20283405.872   108350294.437 7     -3753.294          45.750  
  20283413.312    20283415.232    84272453.050 7     -2919.215          42.500  
                                                                
  22630996.266    22630996.246   118926676.835 5     -3456.514          31.250  
  22630999.446    22630999.416    92670140.459 5     -2693.296          31.250  
                                                                
  24081832.906    24081834.406   128685992.222 6     -5586.761          37.000  
  24081847.786    24081849.736   100089127.132 5     -4345.106          34.750  
                                                                
  23237763.043    23237763.203   122115258.605 4     -4377.428          27.500  
  23237770.913    23237769.743    95154744.543 4     -3411.001          27.500  
  23237773.683    91189961.245 8     -3268.881          48.500  
  20600488.434    20600487.414   110005457.905 7       638.080          42.750  
  20600495.834    20600495.744    85559795.552 6       496.365          41.750  
                                                                
  23307747.764    23307749.754   122483054.573 4      2345.884          26.250  
                  23307749.554    95441338.859 4      1827.881          26.250  
                                                                
  19326572.427    19326572.177   103166545.199 8     -1742.237          53.250  
  19326578.887    19326578.777    80240646.489 8     -1355.086          48.250  
                                                                
  20615164.989    20615164.799   108333416.685 7     -2447.628          45.250  
  20615166.419    20615165.779    84415650.697 7     -1907.214          45.250  
                                                                
  21660550.041    21660548.801   113826961.082 6       988.823          39.750  
                  21660550.231    88696336.025 6       770.532          39.750  
                                                                
  21303323.671    21303323.321   113958407.611 7      1788.508          44.250  
  21303328.941    21303332.021    88634314.300 6      1391.006          38.500  
                                                                
  22018327.700    22018324.390   117494027.864 5       358.708          35.500  
  22018330.340    22018332.570    91384248.217 5       278.901          31.750  
                                                                
 14 10 17  8  4 30.0000000  0 16G 3R 7R 5R21G 5R12G31R11G25R13G16R22-0.000138628
                                G29G21R23R 6
  21326830.952    21326829.802   112073250.548 4      1218.619          28.750  
                  21326831.122    87329808.105 4       949.636          28.750  
                                                                
  23289886.870    23289887.120   124672630.111 6      2948.933          41.750  
  23289900.930    23289901.160    96967598.289 5      2293.522          35.500  
                                                                
  23485385.942    23485500.862   125542889.533 6     -3237.150          36.250  
  23485398.502                                                                  
                                                                
  22117445.607    22117444.997   118354885.251 6     -4250.245          41.000  
  22117451.737    22117453.487    92053802.064 6     -3305.697          36.000  
                                                                
  23325750.538    23325752.678   122577663.315 2     -1695.001          13.000  
  23325754.578    23325754.348    95515071.347 2     -1320.803          13.000  
                                                                
  20286920.578    20286920.798   108369070.394 7     -3756.960          45.750  
  20286929.528    20286929.828    84287056.555 7     -2922.021          42.750  
                                                                
  22634286.372    22634286.842   118943965.229 5     -3458.573          30.250  
  22634288.362    22634288.792    92683611.892 5     -2694.943          30.250  
                                                                
  24087061.331    24087061.341   128713926.528 6     -5586.492          38.750  
  24087075.281    24087076.361   100110853.688 5     -4345.107          33.500  
                                                                
  23241929.040    23241929.320   122137148.572 4     -4378.436          28.000  
  23241937.020    23241937.000    95171801.648 4     -3411.635          28.000  
  23241938.950    91206307.644 7     -3269.535          47.750  
  20599892.992    20599893.042   110002278.735 7       633.774          42.500  
  20599900.662    20599899.422    85557322.866 6       492.951          41.250  
                                                                
  23305517.455    23305516.315   122471328.188 4      2344.815          26.500  
                  23305518.005    95432201.397 4      1827.147          26.500  
                                                                
  19328205.838    19328205.278   103175262.737 8     -1744.633          52.750  
  19328211.598    19328212.088    80247426.800 8     -1356.929          48.250  
                                                                
  20617495.237    20617494.317   108345659.661 7     -2449.341          45.000  
  20617495.967    20617495.587    84425190.660 7     -1908.574          45.000  
                                                                
  21659609.928    21659609.288   113822022.469 6       986.780          39.500  
                  21659609.518    88692487.759 6       768.912          39.500  
                                                                
  21301651.450    21301652.020   113949469.485 7      1786.870          44.250  
  21301659.620    21301660.440    88627362.415 6      1389.789          37.500  
                                                                
  22017992.775    22017989.185   117492245.163 5       354.843          34.500  
  22017995.145    22017999.525    91382861.691 5       276.137          34.000  
                                                                
 14 10 17  8  4 35.0000000  0 16G 3R 7R 5R21G 5R12G31R11G25R13G16R22-0.000135792
                                G29G21R23R 6
  21325672.257    21325671.607   112067164.023 4      1215.760          29.250  
                  21325672.827    87325065.372 4       947.371          29.250  
                                                                
  23287133.315    23287132.945   124657888.520 6      2947.471          41.000  
  23287144.595    23287146.085    96956132.631 5      2292.458          35.000  
                                                                
  23488421.511    23488529.841   125559084.622 5     -3241.021          35.250  
  23488426.531                                                                  
                                                                
  22121413.741    22121415.821   118376138.763 6     -4251.206          41.000  
  22121422.481    22121425.451    92070332.549 5     -3306.612          32.750  
                                                                
  23327365.358    23327366.788   122586146.452 2     -1698.430          13.000  
  23327370.678    23327368.738    95521681.628 2     -1323.154          13.000  
                                                                
  20290437.377    20290439.427   108387864.718 7     -3760.900          45.500  
  20290447.947    20290447.967    84301674.352 7     -2925.176          42.750  
                                                                
  22637578.390    22637579.440   118961263.507 5     -3460.788          30.000  
  22637581.960    22637581.090    92697091.079 5     -2696.716          30.000  
                                                                
  24092290.368    24092288.518   128741860.659 6     -5586.951          40.500  
  24092308.078    24092304.568   100132580.196 5     -4345.315          30.500  
                                                                
  23246095.799    23246094.869   122159044.058 4     -4379.899          28.500  
  23246103.709    23246102.429    95188863.045 4     -3412.869          28.500  
  23246105.439    91222658.127 7     -3270.696          47.000  
  20599303.882    20599301.152   109999121.094 7       629.195          43.000  
  20599308.372    20599308.712    85554866.909 6       489.343          41.250  
                                                                
  23303287.566    23303287.066   122459606.846 4      2343.586          26.250  
                  23303287.196    95423067.852 4      1826.142          26.250  
                                                                
  19329841.064    19329840.724   103183992.067 8     -1747.215          53.000  
  19329847.444    19329847.354    80254216.268 8     -1358.923          48.500  
                                                                
  20619826.129    20619825.919   108357910.942 7     -2451.261          45.000  
  20619827.749    20619826.889    84434737.114 7     -1910.072          45.000  
                                                                
  21658672.165    21658670.965   113817093.712 6       984.659          39.750  
                  21658672.455    88688647.178 6       767.298          39.750  
                                                                
  21299980.889    21299981.579   113940539.635 7      1784.963          43.250  
  21299991.659    21299992.359    88620416.998 6      1388.343          38.000  
                                                                
  22017656.905    22017658.735   117490482.886 5       350.264          34.250  
  22017669.065    22017667.545    91381491.048 5       272.602          33.500  
                                                                
 14 10 17  8  4 40.0000000  0 15G 3R 7R 5R21R12G31R11G25R13G16R22G29-0.000132958
                                G21R23R 6
  21324517.520    21324515.630   112061090.638 4      1213.303          29.250  
                  21324516.880    87320332.874 4       945.469          29.250  
                                                                
  23284377.926    23284379.916   124643153.331 6      2946.484          41.500  
  23284393.056    23284393.636    96944672.034 5      2291.731          35.250  
                                                                
  23491445.796    23491563.546   125575297.410 5     -3243.915          31.250  
  23491459.846    23491461.136    97669654.289 6     -2522.817          38.500  
                                                                
  22125390.545    22125389.125   118397395.169 6     -4251.685          41.000  
  22125398.605    22125397.795    92086865.289 5     -3307.061          30.750  
                                                                
  20293960.158    20293960.828   108406677.261 7     -3764.241          45.000  
  20293968.698    20293970.478    84316306.303 7     -2927.738          43.000  
                                                                
  22640872.014    22640872.534   118978571.747 5     -3462.586          30.750  
  22640874.734    22640873.974    92710577.983 5     -2698.145          30.750  
                                                                
  24097513.101    24097515.661   128769794.551 5     -5587.230          35.750  
  24097532.211    24097532.321   100154306.606 5     -4345.818          34.750  
                                                                
  23250263.373    23250262.923   122180944.967 4     -4380.649          29.500  
  23250271.263    23250270.953    95205928.675 4     -3413.448          29.500  
  23250273.413    91239012.659 7     -3271.244          47.750  
  20598715.743    20598714.363   109995985.047 7       625.251          42.750  
  20598719.783    20598721.443    85552427.764 6       486.397          41.750  
                                                                
  23301057.886    23301055.646   122447890.496 4      2342.890          26.000  
                  23301058.006    95413938.311 4      1825.708          26.000  
                                                                
  19331479.115    19331478.285   103192733.163 8     -1749.333          53.000  
  19331484.585    19331484.475    80261014.899 8     -1360.600          48.000  
                                                                
  20622158.931    20622158.801   108370170.521 7     -2452.733          45.250  
  20622160.181    20622159.741    84444290.022 7     -1911.220          45.250  
                                                                
  21657735.503    21657735.313   113812174.706 6       982.862          40.000  
                  21657736.563    88684814.185 6       765.884          40.000  
                                                                
  21298312.622    21298313.182   113931618.122 7      1783.630          43.750  
  21298324.132    21298324.502    88613478.040 6      1387.402          38.250  
                                                                
  22017335.753    22017334.083   117488741.247 5       346.480          34.750  
  22017343.353    22017342.813    91380136.401 5       269.347          33.000  
                                                                
 14 10 17  8  4 45.0000000  0 16G 3R 7R 5R21G 5R12G31R11G25R13G16R22-0.000130123
                                G29G21R23R 6
  21323363.574    21323361.594   112055030.511 4      1210.909          29.000  
                  21323363.524    87315610.702 4       943.494          29.000  
                                                                
  23281624.868    23281628.298   124628424.488 6      2945.356          41.000  
  23281642.468    23281641.738    96933216.318 5      2290.868          35.500  
                                                                
  23494485.665    23494598.665   125591526.253 5     -3247.340          32.750  
  23494497.005    23494496.235    97682277.364 6     -2525.867          38.000  
                                                                
  22129362.744    22129364.384   118418654.637 7     -4252.016          42.250  
  22129377.124    22129371.594    92103400.389 4     -3307.176          29.750  
                                                                
  23330624.021                                       -1703.587                  
  23330604.441                                                                  
                                                                
  20297485.735    20297486.175   108425508.131 7     -3767.865          45.250  
  20297495.195    20297495.525    84330952.526 7     -2930.603          43.500  
                                                                
  22644168.340    22644168.030   118995890.058 5     -3464.572          31.000  
  22644169.880    22644168.960    92724072.778 5     -2699.684          31.000  
                                                                
  24102741.092    24102741.352   128797728.532 6     -5586.537          39.500  
  24102758.242    24102759.932   100176032.906 5     -4345.132          35.250  
                                                                
  23254432.284    23254432.354   122202851.448 4     -4381.626          29.750  
  23254439.334    23254439.144    95222998.598 4     -3414.382          29.750  
  23254442.724    91255371.391 7     -3272.000          47.500  
  20598132.284    20598130.344   109992870.618 6       620.772          41.250  
  20598139.904    20598139.274    85550005.428 7       482.759          42.250  
                                                                
  23298828.956    23298828.186   122436179.447 4      2341.981          26.750  
                  23298830.976    95404812.772 4      1824.921          26.750  
                                                                
  19333118.333    19333117.923   103201486.245 8     -1751.636          52.750  
  19333124.483    19333124.243    80267822.842 8     -1362.438          48.000  
                                                                
  20624494.171    20624493.481   108382438.517 7     -2454.243          45.250  
  20624494.211    20624494.451    84453849.482 7     -1912.412          45.250  
                                                                
  21656802.396    21656800.906   113807265.724 6       981.008          40.250  
                  21656802.296    88680989.019 6       764.461          40.250  
                                                                
  21296644.247    21296648.097   113922705.085 7      1782.038          43.000  
  21296656.187    21296658.067    88606545.696 6      1385.950          38.250  
                                                                
  22017012.987    22017011.297   117487020.234 5       342.424          34.250  
  22017020.707    22017020.357    91378797.811 5       266.243          33.500  
                                                                
 14 10 17  8  4 50.0000000  0 16G 3R 7R 5R21G 5R12G31R11G25R13G16R22-0.000127288
                                G29G21R23R 6
  21322212.886    21322211.896   112048984.101 4      1207.809          28.750  
                  21322213.946    87310899.213 4       941.150          28.750  
                                                                
  23278876.905    23278877.445   124613702.375 6      2943.941          41.000  
  23278892.985    23278891.045    96921765.835 6      2289.725          36.250  
                                                                
  23497524.988    23497636.618   125607774.044 5     -3251.438          30.000  
  23497534.808    23497537.118    97694914.453 6     -2528.786          38.500  
                                                                
  22133336.214    22133335.794   118439917.421 7     -4252.713          42.750  
  22133344.044    22133342.324    92119938.102 4     -3307.590          28.750  
                                                                
  23332214.696                                       -1708.870                  
  23332224.066                                                                  
                                                                
  20301015.183    20301014.963   108444357.758 7     -3771.733          45.500  
  20301023.633    20301023.863    84345613.346 7     -2933.509          43.250  
                                                                
  22647465.017    22647465.027   119013218.777 5     -3466.841          31.000  
  22647468.527    22647465.997    92737575.638 5     -2701.480          31.000  
                                                                
  24107964.498    24107970.648   128825662.695 5     -5587.201          33.750  
  24107983.788    24107986.198   100197759.559 5     -4345.295          35.000  
                                                                
  23258602.271    23258600.971   122224763.820 4     -4383.011          28.250  
  23258610.151    23258610.711    95240073.151 4     -3415.353          28.250  
  23258611.531    91271734.459 7     -3272.941          46.000  
  20597553.361    20597550.811   109989778.231 6       616.365          41.250  
  20597558.791    20597559.441    85547600.255 7       479.376          42.000  
                                                                
  23296601.810    23296601.390   122424473.835 4      2340.678          27.250  
                  23296603.380    95395691.568 4      1823.894          27.250  
                                                                
  19334759.882    19334759.962   103210251.622 8     -1754.234          52.500  
  19334765.902    19334766.372    80274640.353 8     -1364.399          48.000  
                                                                
  20626829.902    20626829.642   108394715.243 7     -2456.126          45.000  
  20626830.512    20626830.522    84463415.759 7     -1913.835          45.000  
                                                                
  21655870.134    21655868.924   113802367.074 6       978.735          39.750  
                  21655869.784    88677171.887 6       762.675          39.750  
                                                                
  21294983.058    21294983.918   113913800.799 7      1780.040          43.000  
  21294994.448    21294993.478    88599620.149 6      1384.519          38.500  
                                                                
  22016692.653    22016689.923   117485320.121 5       338.394          33.750  
  22016701.023    22016700.043    91377475.529 5       263.400          31.250  
                                                                
 14 10 17  8  4 55.0000000  0 16G 3R 7R 5R21G 5R12G31R11G25R13G16R22-0.000124454
                                G29G21R23R 6
  21321066.354    21321064.334   112042950.305 4      1205.702          29.000  
                  21321065.604    87306197.516 4       939.512          29.000  
                                                                
  23276130.881    23276128.851   124598986.161 7      2942.949          42.500  
  23276145.441    23276141.881    96910319.957 5      2288.927          33.750  
                                                                
  23500571.689    23500678.049   125624039.157 4     -3254.348          29.500  
  23500579.619    23500579.229    97707564.466 6     -2531.088          38.250  
                                                                
  22137308.656    22137308.466   118461182.553 6     -4252.973          41.750  
  22137309.546                                                                  
                                                                
  23333871.409                                       -1710.851                  
  23333855.759                                                                  
                                                                
  20304546.945    20304546.725   108463225.016 7     -3775.077          45.500  
  20304555.455    20304555.925    84360287.843 7     -2936.165          43.500  
                                                                
  22650764.731    22650764.531   119030556.808 5     -3468.369          31.250  
  22650767.711    22650765.541    92751085.774 5     -2702.619          31.250  
                                                                
  24113196.048    24113198.048   128853595.986 6     -5586.217          39.250  
  24113218.148    24113216.158   100219485.309 5     -4344.792          31.750  
                                                                
  23262772.908    23262771.578   122246680.996 4     -4383.737          29.250  
  23262781.118    23262780.108    95257151.450 4     -3415.992          29.250  
  23262782.648    91288101.196 7     -3273.595          47.000  
  20596976.695    20596975.985   109986706.979 6       612.358          40.500  
  20596983.335    20596984.235    85545211.512 7       476.278          42.000  
                                                                
  23294374.547    23294374.127   122412772.765 4      2340.072          27.500  
                  23294374.707    95386573.837 4      1823.643          27.500  
                                                                
  19336404.694    19336403.604   103219028.155 8     -1756.184          52.000  
  19336410.084    19336410.494    80281466.536 8     -1365.894          48.000  
                                                                
  20629167.692    20629167.322   108406999.708 7     -2457.458          45.250  
  20629168.352    20629168.082    84472988.058 7     -1914.894          45.250  
                                                                
  21654939.653    21654938.333   113797477.721 6       977.166          40.250  
                  21654939.283    88673362.012 6       761.440          40.250  
                                                                
  21293321.021    21293321.231   113904904.269 7      1778.801          43.250  
  21293329.231    21293331.351    88592700.625 6      1383.485          38.750  
                                                                
  22016377.502    22016375.902   117483640.028 5       334.776          31.500  
  22016380.502    22016380.982    91376168.851 4       260.373          29.000  
                                                                
