     2.11           OBSERVATION DATA    M (MIXED)           RINEX VERSION / TYPE
TPP                 Reference Data Shop 17-OCT-14 12:05     PGM / RUN BY / DATE 
KRA1                                                        MARKER NAME         
KRA1                                                        MARKER NUMBER       
Malopolski System PoUrzad Marszalkowski Wojewodztwa MalopolsOBSERVER / AGENCY   
                    TRIMBLE NETR5                           REC # / TYPE / VERS 
074469              TRM57971.00     NONE                    ANT # / TYPE        
  3856938.9295  1397750.2057  4867717.3326                  APPROX POSITION XYZ 
        0.0000        0.0000        0.0000                  ANTENNA: DELTA H/E/N
     1     1     0                                          WAVELENGTH FACT L1/2
    10    C1    P1    L1    D1    S1    C2    P2    L2    D2# / TYPES OF OBSERV 
          S2                                                # / TYPES OF OBSERV 
     5.000                                                  INTERVAL            
     0                                                      RCV CLOCK OFFS APPL 
    16                                                      LEAP SECONDS        
  2014    10    17    07    30   00.0000000     GPS         TIME OF FIRST OBS   
                                                            END OF HEADER       
 14 10 17  7 30  0.0000000  0 15G02G05G16G21G25G29G31R05R06R11R12R13 0.000000000
                                R21R22R23                   
  24670953.633                   129646698.17816     -3199.096          42.900  
                  24670962.668   101023346.71716                        22.800  
  23320863.578                   122552006.07316       562.450          44.300  
  23320873.965    23320873.609    95495126.28917                        29.200  
  24687390.820                   129733096.88314      3518.467          37.400  
                  24687399.035   101090741.58515                        15.600  
  22597595.141                   118751254.45817      2638.816          48.500  
                  22597601.129    92533418.50817                        32.500  
  22022090.750                   115726979.12417     -2880.579          47.300  
  22022101.840                                                                  
  20194400.500                   106122235.01217      -781.328          51.200  
  20194406.492    20194406.547    82692697.47519                        43.800  
  21858365.672                   114866426.94317     -1526.608          51.000  
  21858371.781    21858371.309    89506323.54818                        37.400  
  22935156.578    22935157.023   122601519.27717      -670.981          48.200  
                  22935165.383    95356811.55918      -521.867          41.000  
  22854362.180    22854360.980   121955575.00217      2749.455          45.800  
                  22854369.457    94854194.96318      2138.465          38.600  
  22355606.461    22355606.555   119461572.26316     -4382.429          44.800  
                  22355617.141    92914506.50018     -3408.552          36.800  
  19552963.289    19552961.621   104448251.93517     -1090.972          47.200  
                  19552969.043    81237643.16119      -848.528          46.300  
  21558729.945    21558728.277   115122421.05917      3104.207          47.200  
                  21558734.523    89539651.71819      2414.385          42.900  
  20935089.758    20935089.262   112027961.79318     -2936.615          50.300  
                  20935096.566    87132790.48719     -2284.035          45.900  
  19252093.125    19252092.746   102769063.42918       262.127          52.400  
                  19252098.293    79931414.61319       203.882          49.800  
  22515906.414    22515906.742   120445699.90117      3340.064          46.700  
                  22515916.859    93679429.83819      2597.827          42.400  
 14 10 17  7 30  5.0000000  0 15G02G05G16G21G25G29G31R05R06R11R12R13 0.000000000
                                R21R22R23                   
  24673997.891                   129662695.586 6     -3199.739          43.200  
                  24674007.043   101035812.212 6                        25.300  
  23320330.820                   122549203.006 6       559.364          44.100  
  23320340.270    23320340.148    95492942.092 7                        29.700  
  24684043.680                   129715505.177 4      3518.292          38.100  
                  24684051.367   101077033.882 5                        16.300  
  22595084.984                   118738064.784 7      2637.338          48.400  
                  22595091.617    92523140.847 7                        32.000  
  22024832.609                   115741386.870 7     -2882.241          48.300  
  22024843.172                                                                  
  20195144.961                   106126147.419 7      -783.260          51.500  
  20195151.832    20195151.828    82695746.096 9                        43.700  
  21859819.789                   114874068.289 7     -1529.395          50.800  
  21859825.605    21859825.602    89512277.829 8                        36.800  
  22935786.656    22935786.633   122604886.706 7      -675.180          48.500  
                  22935794.875    95359430.660 8      -525.139          40.900  
  22851787.758    22851786.090   121941835.977 7      2746.673          46.100  
                  22851794.566    94843509.076 8      2136.297          38.700  
  22359708.102    22359707.488   119483488.306 6     -4383.765          44.900  
                  22359718.195    92931552.279 8     -3409.588          36.900  
  19553986.773    19553985.809   104453720.245 7     -1095.507          47.200  
                  19553992.996    81241896.280 9      -852.055          45.700  
  21555824.125    21555823.277   115106908.781 7      3101.231          47.000  
                  21555829.527    89527586.619 9      2412.070          42.900  
  20937833.930    20937833.668   112042648.463 8     -2937.847          50.100  
                  20937840.855    87144213.433 9     -2284.988          45.600  
  19251849.125    19251849.570   102767760.918 8       259.387          52.800  
                  19251855.230    79930401.541 9       201.749          49.300  
  22512785.766    22512785.270   120429003.246 7      3338.830          48.000  
                  22512795.625    93666443.562 9      2596.871          42.800  
 14 10 17  7 30 10.0000000  0 15G02G05G16G21G25G29G31R05R06R11R12R13 0.000000000
                                R21R22R23                   
  24677042.242                   129678696.779 6     -3200.463          43.300  
                  24677051.688   101048280.647 6                        22.800  
  23319800.383                   122546415.916 6       556.223          43.800  
  23319810.008    23319810.004    95490770.337 7                        29.500  
  24680696.063                   129697915.079 4      3517.983          37.800  
                  24680704.160   101063327.220 5                        14.800  
  22592576.594                   118724883.009 7      2635.799          48.100  
                  22592583.227    92512869.342 7                        32.200  
  22027576.234                   115755803.273 6     -2883.916          46.600  
  22027586.504                                                                  
  20195891.336                   106130069.861 7      -785.229          50.800  
  20195897.621    20195897.559    82698802.537 9                        43.800  
  21861276.523                   114881724.103 7     -1532.268          50.500  
  21861282.633    21861282.629    89518243.388 8                        37.100  
  22936421.297    22936419.980   122608275.729 7      -679.446          49.000  
                  22936427.988    95362066.551 8      -528.452          40.200  
  22849215.305    22849213.637   121928111.424 7      2743.812          45.800  
                  22849222.230    94832834.441 8      2134.075          38.900  
  22363810.727    22363810.230   119505411.469 7     -4385.136          45.100  
                  22363820.586    92948603.578 8     -3410.647          36.400  
  19555015.031    19555014.066   104459211.620 7     -1100.081          47.300  
                  19555021.605    81246167.339 9      -855.616          45.800  
  21552922.836    21552921.285   115091411.974 7      3098.199          47.000  
                  21552927.297    89515533.539 9      2409.712          42.700  
  20940580.125    20940577.988   112057341.859 8     -2939.142          50.500  
                  20940585.293    87155641.621 9     -2285.996          45.500  
  19251608.461    19251607.027   102766472.665 8       256.591          52.700  
                  19251612.453    79929399.573 9       199.570          49.500  
  22509666.344    22509665.145   120412313.392 7      3337.506          47.600  
                  22509675.500    93653462.573 9      2595.836          42.700  
 14 10 17  7 30 15.0000000  0 15G02G05G16G21G25G29G31R05R06R11R12R13 0.000000000
                                R21R22R23                   
  24680087.297                   129694701.823 6     -3201.340          42.900  
                  24680097.680   101060752.097 6                        23.300  
  23319272.586                   122543644.828 6       552.921          44.700  
  23319281.625    23319281.914    95488611.053 7                        29.400  
  24677349.086                   129680326.537 4      3517.552          37.700  
                  24677356.715   101049621.858 5                        15.600  
  22590069.094                   118711709.132 7      2634.123          47.800  
                  22590076.078    92502603.997 7                        32.300  
  22030321.086                   115770228.375 6     -2885.718          46.800  
  22030331.766                                                                  
  20196639.391                   106134002.344 7      -787.327          50.600  
  20196645.383    20196645.672    82701866.811 9                        43.600  
  21862736.172                   114889394.361 7     -1535.235          50.500  
  21862741.637    21862741.984    89524220.207 8                        38.100  
  22937059.680    22937058.832   122611686.178 7      -683.837          48.900  
                  22937066.840    95364719.108 8      -531.869          40.100  
  22846646.109    22846645.379   121914401.453 7      2740.786          45.100  
                  22846653.621    94822171.152 8      2131.718          38.900  
  22367914.805    22367914.664   119527341.634 6     -4386.622          45.000  
                  22367925.016    92965660.352 8     -3411.815          36.100  
  19556047.641    19556046.441   104464726.066 7     -1104.752          46.400  
                  19556053.746    81250456.345 9      -859.248          46.300  
  21550022.844    21550021.762   115075930.533 7      3095.021          47.000  
                  21550028.129    89503492.426 9      2407.234          42.700  
  20943326.805    20943326.074   112072041.919 8     -2940.579          50.100  
                  20943333.613    87167075.003 9     -2287.114          45.700  
  19251369.344    19251368.965   102765198.666 8       253.638          52.300  
                  19251374.629    79928408.684 9       197.275          49.500  
  22506547.891    22506547.395   120395630.292 7      3336.080          48.300  
                  22506557.633    93640486.844 9      2594.728          43.300  
 14 10 17  7 30 20.0000000  0 15G02G05G16G21G25G29G31R05R06R11R12R13 0.000000000
                                R21R22R23                   
  24683133.852                   129710710.770 6     -3202.026          43.100  
                  24683143.707   101073226.575 6                        22.600  
  23318748.930                   122540889.858 6       549.767          43.700  
  23318758.145    23318758.141    95486464.333 7                        29.100  
  24674002.547                   129662739.672 4      3517.346          37.700  
                  24674010.410   101035917.776 5                        15.600  
  22587563.703                   118698543.350 7      2632.587          47.900  
                  22587570.570    92492344.950 7                        33.000  
  22033068.211                   115784662.319 7     -2887.409          49.000  
  22033077.777                                                                  
  20197389.914                   106137945.024 7      -789.280          51.500  
  20197396.844    20197396.605    82704939.022 9                        44.100  
  21864198.383                   114897079.226 7     -1538.064          50.300  
  21864204.258    21864204.430    89530208.406 8                        37.600  
  22937700.602    22937700.578   122615118.273 7      -688.062          48.800  
                  22937708.469    95367388.519 8      -535.158          40.700  
  22844080.570    22844078.316   121900706.199 7      2737.932          45.800  
                  22844086.676    94811519.314 8      2129.501          38.800  
  22372020.344    22372019.730   119549278.951 7     -4387.975          45.600  
                  22372029.852    92982722.667 8     -3412.863          36.400  
  19557083.422    19557082.340   104470263.647 7     -1109.312          47.400  
                  19557089.645    81254763.335 9      -862.793          45.900  
  21547127.938    21547125.801   115060464.557 7      3092.034          47.200  
                  21547132.164    89491463.328 9      2404.917          42.400  
  20946075.594    20946075.215   112086748.853 8     -2941.882          50.500  
                  20946082.402    87178513.706 9     -2288.125          46.000  
  19251133.227    19251131.676   102763938.934 8       250.885          52.900  
                  19251137.453    79927428.892 9       195.132          49.800  
  22503430.039    22503429.309   120378954.026 7      3334.781          47.800  
                  22503439.664    93627516.420 9      2593.713          42.800  
 14 10 17  7 30 25.0000000  0 15G02G05G16G21G25G29G31R05R06R11R12R13 0.000000000
                                R21R22R23                   
  24686180.781                   129726723.353 6     -3202.758          43.300  
                  24686190.813   101085703.892 6                        22.000  
  23318227.031                   122538150.759 6       546.587          43.800  
  23318237.652    23318236.770    95484329.979 7                        29.400  
  24670656.148                   129645154.280 4      3517.003          38.100  
                  24670664.480   101022214.819 5                        15.600  
  22585060.156                   118685385.409 7      2631.022          47.600  
                  22585066.906    92482092.022 7                        32.500  
  22035816.633                   115799104.795 7     -2889.125          48.700  
  22035826.141                                                                  
  20198142.031                   106141897.637 7      -791.269          51.900  
  20198148.258    20198148.313    82708018.978 9                        43.600  
  21865663.008                   114904778.458 7     -1540.950          50.200  
  21865669.586    21865669.465    89536207.799 8                        37.100  
  22938348.422    22938346.754   122618571.690 7      -692.348          48.200  
                  22938354.762    95370074.499 8      -538.489          39.800  
  22841517.109    22841515.090   121887025.313 7      2735.115          46.100  
                  22841523.215    94800878.643 8      2127.306          39.300  
  22376127.422    22376126.926   119571223.243 7     -4389.349          45.600  
                  22376136.695    92999790.404 8     -3413.923          36.700  
  19558124.539    19558123.105   104475824.267 7     -1113.965          47.500  
                  19558130.410    81259088.255 9      -866.416          45.900  
  21544232.813    21544231.965   115045014.011 7      3088.934          46.400  
                  21544238.332    89479446.236 9      2402.511          43.300  
  20948825.906    20948823.770   112101462.365 8     -2943.191          51.000  
                  20948830.957    87189957.539 9     -2289.142          45.900  
  19250900.047    19250899.668   102762693.291 8       248.043          52.200  
                  19250905.098    79926460.062 9       192.915          49.200  
  22500313.727    22500312.879   120362284.605 7      3333.405          47.900  
                  22500323.234    93614551.328 9      2592.645          43.200  
 14 10 17  7 30 30.0000000  0 15G02G05G16G21G25G29G31R05R06R11R12R13 0.000000000
                                R21R22R23                   
  24689229.039                   129742740.079 6     -3203.591          43.300  
                  24689238.953   101098184.446 6                        23.600  
  23317709.586                   122535428.052 6       543.286          43.900  
  23317719.328    23317718.973    95482208.379 7                        28.500  
  24667309.789                   129627570.873 4      3516.555          37.300  
                  24667317.652   101008513.519 5                        17.400  
  22582557.781                   118672235.768 7      2629.335          48.000  
                  22582564.180    92471845.567 7                        31.900  
  22038566.594                   115813556.329 7     -2890.974          47.400  
  22038576.570                                                                  
  20198896.172                   106145860.648 7      -793.378          50.800  
  20198902.574    20198902.453    82711107.037 9                        43.900  
  21867131.008                   114912492.500 7     -1543.939          50.100  
  21867137.703    21867137.582    89542218.730 8                        37.500  
  22938997.680    22938996.832   122622047.039 7      -696.773          48.500  
                  22939004.957    95372777.538 8      -541.935          39.900  
  22838954.703    22838953.152   121873359.313 7      2732.036          45.500  
                  22838962.332    94790249.550 8      2124.906          40.200  
  22380236.016    22380234.582   119593174.805 7     -4390.835          45.800  
                  22380244.234    93016863.813 8     -3415.085          36.100  
  19559170.000    19559169.270   104481408.210 7     -1118.637          47.100  
                  19559176.574    81263431.314 9      -870.046          45.900  
  21541343.492    21541342.059   115029579.242 7      3085.751          46.600  
                  21541348.426    89467441.408 9      2400.032          42.900  
  20951575.719    20951575.695   112116182.899 8     -2944.655          50.900  
                  20951582.645    87201406.844 9     -2290.285          45.600  
  19250669.547    19250668.582   102761462.268 8       245.092          52.500  
                  19250674.125    79925502.591 9       190.627          48.900  
  22497198.695    22497198.555   120345622.290 7      3331.949          47.400  
                  22497208.789    93601591.751 9      2591.519          43.200  
 14 10 17  7 30 35.0000000  0 15G02G05G16G21G25G29G31R05R06R11R12R13 0.000000000
                                R21R22R23                   
  24692277.969                   129758760.376 6     -3204.258          43.500  
                  24692287.883   101110667.771 6                        22.800  
  23317194.586                   122532721.145 6       540.212          44.100  
  23317203.391    23317202.977    95480099.119 7                        29.600  
  24663964.008                   129609988.845 3      3516.390          36.600  
                  24663972.281   100994813.207 5                        15.600  
  22580057.156                   118659093.929 7      2627.818          47.200  
                  22580063.789    92461605.189 7                        32.300  
  22041317.977                   115828016.330 7     -2892.583          47.900  
  22041328.422                                                                  
  20199651.898                   106149833.512 7      -795.276          51.000  
  20199658.359    20199658.297    82714202.771 9                        43.800  
  21868602.133                   114920220.768 7     -1546.688          49.800  
  21868608.242    21868608.414    89548240.740 8                        37.400  
  22939651.711    22939651.449   122625543.701 7      -700.923          48.500  
                  22939659.340    95375497.151 8      -545.160          40.200  
  22836396.313    22836395.113   121859707.854 7      2729.216          45.200  
                  22836404.414    94779631.777 8      2122.717          40.000  
  22384344.797    22384344.066   119615133.205 7     -4392.140          45.900  
                  22384352.898    93033942.535 8     -3416.097          35.600  
  19560219.727    19560218.879   104487015.066 7     -1123.099          46.700  
                  19560225.949    81267792.192 9      -873.518          46.200  
  21538455.883    21538454.918   115014159.873 7      3082.721          47.300  
                  21538461.168    89455448.575 9      2397.670          42.400  
  20954327.914    20954326.832   112130909.886 8     -2945.850          50.500  
                  20954334.137    87212861.154 9     -2291.215          45.500  
  19250441.094    19250439.895   102760245.263 8       242.360          52.400  
                  19250445.438    79924556.040 9       188.499          49.200  
  22494084.500    22494085.180   120328966.634 7      3330.707          47.400  
                  22494095.887    93588637.364 9      2590.547          43.300  
 14 10 17  7 30 40.0000000  0 15G02G05G16G21G25G29G31R05R06R11R12R13 0.000000000
                                R21R22R23                   
  24695327.242                   129774784.604 6     -3205.120          43.400  
                  24695336.688   101123154.166 6                        22.300  
  23316682.766                   122530030.457 6       536.882          44.200  
  23316690.867    23316690.688    95478002.476 7                        29.100  
  24660618.578                   129592408.656 4      3515.943          37.900  
                  24660626.676   100981114.329 5                        15.600  
  22577558.141                   118645960.197 7      2626.133          47.400  
                  22577564.363    92451371.129 7                        31.900  
  22044071.102                   115842485.175 7     -2894.432          47.600  
  22044081.781                                                                  
  20200410.242                   106153816.615 7      -797.394          51.200  
  20200417.055    20200416.934    82717306.487 9                        43.900  
  21870075.664                   114927963.654 7     -1549.707          49.800  
  21870081.715    21870081.711    89554274.147 8                        37.400  
  22940309.227    22940308.848   122629061.961 7      -705.360          47.900  
                  22940316.855    95378233.575 8      -548.615          39.300  
  22833839.703    22833838.855   121846071.121 6      2726.211          44.300  
                  22833848.391    94769025.444 8      2120.380          40.400  
  22388455.750    22388454.316   119637098.720 7     -4393.617          46.300  
                  22388463.496    93051026.785 8     -3417.244          35.300  
  19561273.000    19561271.801   104492645.110 7     -1127.795          46.900  
                  19561279.105    81272171.113 9      -877.175          46.400  
  21535569.797    21535569.891   114998756.081 7      3079.538          47.000  
                  21535576.254    89443467.841 9      2395.197          42.600  
  20957081.211    20957080.363   112145643.679 8     -2947.276          50.200  
                  20957088.020    87224320.758 9     -2292.325          45.300  
  19250215.867    19250215.961   102759042.676 8       239.414          52.700  
                  19250221.270    79923620.695 9       186.208          48.900  
  22490971.625    22490972.656   120312317.863 7      3329.243          47.600  
                  22490983.012    93575688.329 9      2589.408          43.300  
 14 10 17  7 30 45.0000000  0 15G02G05G16G21G25G29G31R05R06R11R12R13 0.000000000
                                R21R22R23                   
  24698376.867                   129790812.558 6     -3205.893          42.900  
                  24698387.426   101135643.463 6                        22.500  
  23316173.516                   122527355.760 6       533.642          44.900  
  23316182.379    23316182.141    95475918.311 7                        29.300  
  24657274.336                   129574830.099 4      3515.552          37.700  
                  24657282.023   100967416.729 5                        15.600  
  22575059.789                   118632834.418 7      2624.523          48.400  
                  22575066.949    92441143.258 7                        31.900  
  22046826.156                   115856962.656 7     -2896.194          48.600  
  22046836.426                                                                  
  20201170.109                   106157809.732 7      -799.429          51.700  
  20201176.688    20201176.742    82720417.997 9                        44.600  
  21871551.734                   114935720.934 7     -1552.625          50.200  
  21871557.961    21871557.957    89560318.770 8                        37.400  
  22940971.094    22940971.188   122632601.649 7      -709.647          47.600  
                  22940979.195    95380986.654 8      -551.945          39.800  
  22831287.586    22831286.270   121832448.881 6      2723.249          44.500  
                  22831296.391    94758430.392 8      2118.076          40.700  
  22392567.164    22392566.785   119659071.152 7     -4395.058          45.500  
                  22392575.852    93068116.424 8     -3418.373          35.500  
  19562331.273    19562331.133   104498298.208 7     -1132.484          46.900  
                  19562338.316    81276567.955 9      -880.821          46.100  
  21532689.500    21532688.301   114983367.859 7      3076.395          47.000  
                  21532695.020    89431499.222 9      2392.751          42.800  
  20959836.086    20959835.004   112160384.102 8     -2948.610          50.500  
                  20959842.191    87235785.519 9     -2293.362          45.500  
  19249993.172    19249993.031   102757854.143 8       236.567          52.500  
                  19249998.457    79922696.280 9       184.001          49.500  
  22487861.945    22487861.684   120295675.954 7      3327.812          47.600  
                  22487872.039    93562744.641 9      2588.296          43.100  
 14 10 17  7 30 50.0000000  0 15G02G05G16G21G25G29G31R05R06R11R12R13 0.000000000
                                R21R22R23                   
  24701427.688                   129806844.125 6     -3206.617          43.000  
                  24701438.129   101148135.573 6                        24.100  
  23315669.125                   122524696.909 6       530.485          44.500  
  23315676.406    23315676.227    95473846.488 7                        30.200  
  24653929.336                   129557253.005 4      3515.290          37.900  
                  24653936.613   100953720.301 5                        16.900  
  22572564.117                   118619716.484 7      2622.957          48.400  
                  22572570.340    92430921.505 7                        32.400  
  22049583.086                   115871448.612 7     -2897.885          48.200  
  22049593.180                                                                  
  20201931.570                   106161812.729 7      -801.405          51.400  
  20201938.500    20201938.438    82723537.220 9                        43.700  
  21873030.844                   114943492.502 7     -1555.484          50.100  
  21873037.188    21873037.125    89566374.523 8                        37.100  
  22941637.672    22941637.531   122636162.602 7      -713.905          47.800  
                  22941645.301    95383756.278 8      -555.258          39.400  
  22828736.445    22828736.422   121818841.285 6      2720.334          44.700  
                  22828746.656    94747846.718 8      2115.812          39.900  
  22396679.680    22396678.949   119681050.381 7     -4396.388          45.400  
                  22396688.719    93085211.351 8     -3419.403          35.800  
  19563394.039    19563393.543   104503974.186 7     -1137.057          47.500  
                  19563400.730    81280982.586 9      -884.375          46.500  
  21529810.203    21529809.004   114967994.994 7      3073.337          46.500  
                  21529815.488    89419542.550 9      2390.372          42.400  
  20962591.727    20962591.586   112175131.007 8     -2949.937          50.500  
                  20962599.121    87247255.336 9     -2294.399          45.300  
  19249773.313    19249772.582   102756679.750 8       233.737          52.400  
                  19249778.129    79921782.858 9       181.796          49.000  
  22484752.563    22484751.949   120279040.645 7      3326.521          47.700  
                  22484761.953    93549806.073 9      2587.294          43.300  
 14 10 17  7 30 55.0000000  0 15G02G05G16G21G25G29G31R05R06R11R12R13 0.000000000
                                R21R22R23                   
  24704479.289                   129822879.556 6     -3207.383          43.000  
                  24704489.086   101160630.670 6                        24.700  
  23315165.039                   122522054.271 6       527.258          44.600  
  23315172.613    23315172.785    95471787.287 7                        29.200  
  24650584.266                   129539677.720 4      3514.919          38.000  
                  24650593.125   100940025.254 5                        15.600  
  22570068.758                   118606606.703 7      2621.331          48.000  
                  22570075.391    92420706.102 7                        31.600  
  22052341.289                   115885943.387 7     -2899.637          47.400  
  22052351.324                                                                  
  20202695.188                   106165825.934 7      -803.433          50.700  
  20202701.414    20202701.469    82726664.380 9                        43.500  
  21874512.383                   114951278.640 7     -1558.375          50.500  
  21874518.727    21874518.723    89572441.640 8                        37.200  
  22942307.992    22942307.613   122639745.312 7      -718.250          48.600  
                  22942315.387    95386542.820 8      -558.637          39.400  
  22826190.297    22826188.863   121805248.551 6      2717.413          44.500  
                  22826198.867    94737274.618 8      2113.533          39.800  
  22400794.359    22400794.219   119703036.671 7     -4397.819          45.700  
                  22400803.984    93102311.755 8     -3420.520          36.400  
  19564461.344    19564460.848   104509673.444 7     -1141.704          47.900  
                  19564468.035    81285415.342 9      -887.990          46.000  
  21526934.016    21526933.051   114952637.848 7      3070.190          46.200  
                  21526939.418    89407598.103 9      2387.922          41.900  
  20965348.820    20965348.324   112189884.748 8     -2951.303          50.300  
                  20965356.098    87258730.446 9     -2295.456          45.300  
  19249556.781    19249555.348   102755519.720 8       230.894          52.500  
                  19249560.773    79920880.617 9       179.583          49.700  
  22481644.578    22481644.082   120262412.346 7      3325.140          48.100  
                  22481653.617    93536872.971 9      2586.217          43.400  
 14 10 17  7 31  0.0000000  0 15G02G05G16G21G25G29G31R05R06R11R12R13 0.000000000
                                R21R22R23                   
  24707531.672                   129838918.688 6     -3208.182          43.000  
                  24707541.117   101173128.695 6                        22.600  
  23314665.703                   122519427.627 6       523.979          45.400  
  23314673.688    23314673.449    95469740.555 7                        29.400  
  24647240.164                   129522103.993 4      3514.523          38.100  
                  24647248.145   100926331.480 5                        16.900  
  22567576.008                   118593504.897 7      2619.643          47.600  
                  22567582.406    92410496.918 7                        31.400  
  22055100.484                   115900446.748 7     -2901.427          47.300  
  22055111.457                                                                  
  20203461.000                   106169849.059 7      -805.479          51.300  
  20203467.637    20203467.574    82729799.281 9                        43.600  
  21875997.078                   114959079.185 7     -1561.327          50.500  
  21876003.832    21876003.301    89578519.969 8                        37.700  
  22942982.063    22942981.449   122643349.337 7      -722.578          48.000  
                  22942989.457    95389345.946 8      -562.003          39.800  
  22823646.211    22823644.777   121791670.373 6      2714.401          44.900  
                  22823654.313    94726713.817 8      2111.201          40.400  
  22404910.688    22404909.605   119725029.889 7     -4399.269          46.000  
                  22404919.258    93119417.553 8     -3421.640          35.600  
  19565532.805    19565531.957   104515395.567 7     -1146.358          47.000  
                  19565539.262    81289865.875 9      -891.615          46.200  
  21524061.031    21524059.949   114937296.136 7      3067.056          46.300  
                  21524066.434    89395665.661 9      2385.488          42.800  
  20968107.031    20968106.301   112204644.994 8     -2952.671          50.700  
                  20968113.605    87270210.620 9     -2296.519          45.300  
  19249341.203    19249340.355   102754373.881 8       227.952          52.000  
                  19249346.020    79919989.405 9       177.297          49.400  
  22478537.242    22478536.746   120245790.800 7      3323.661          48.400  
                  22478546.398    93523945.106 9      2585.069          43.900  
 14 10 17  7 31  5.0000000  0 15G02G05G16G21G25G29G31R05R06R11R12R13 0.000000000
                                R21R22R23                   
  24710584.492                   129854961.727 6     -3208.835          42.600  
                  24710594.289   101185629.738 6                        24.000  
  23314168.766                   122516817.179 6       520.845          45.100  
  23314175.871    23314175.750    95467706.435 7                        29.100  
  24643897.125                   129504532.082 4      3514.311          38.300  
                  24643904.402   100912639.056 5                        16.900  
  22565084.352                   118580411.276 7      2618.126          48.400  
                  22565090.574    92400294.101 7                        32.800  
  22057862.328                   115914958.923 6     -2903.091          46.600  
  22057872.539                                                                  
  20204228.813                   106173882.395 7      -807.421          51.000  
  20204235.449    20204235.270    82732942.134 9                        43.900  
  21877483.938                   114966894.272 7     -1564.129          50.000  
  21877490.281    21877489.926    89584609.640 8                        38.100  
  22943659.914    22943659.535   122646975.087 7      -726.828          47.600  
                  22943667.660    95392165.968 8      -565.312          39.100  
  22821103.977    22821101.957   121778107.299 6      2711.484          43.900  
                  22821112.430    94716164.766 8      2108.924          39.700  
  22409029.023    22409026.652   119747030.152 7     -4400.568          46.400  
                  22409036.652    93136528.829 8     -3422.658          35.900  
  19566608.438    19566607.238   104521140.903 7     -1150.883          47.300  
                  19566614.309    81294334.464 9      -895.128          46.600  
  21521190.797    21521190.301   114921970.272 7      3063.960          46.400  
                  21521196.785    89383745.545 9      2383.085          42.800  
  20970866.820    20970865.504   112219412.064 8     -2953.913          51.000  
                  20970872.809    87281696.116 9     -2297.485          45.200  
  19249129.266    19249128.770   102753242.443 8       225.222          52.700  
                  19249134.434    79919109.394 9       175.172          49.700  
  22475431.930    22475430.145   120229176.237 7      3322.428          48.400  
                  22475439.914    93511022.684 9      2584.106          43.400  
 14 10 17  7 31 10.0000000  0 15G02G05G16G21G25G29G31R05R06R11R12R13 0.000000000
                                R21R22R23                   
  24713637.320                   129871008.402 6     -3209.629          42.800  
                  24713647.820   101198133.625 6                        22.900  
  23313675.211                   122514222.673 6       517.622          44.600  
  23313682.023    23313682.078    95465684.754 7                        29.100  
  24640553.461                   129486961.769 4      3513.954          38.000  
                  24640560.621   100898947.836 5                        15.600  
  22562594.406                   118567325.582 7      2616.495          48.100  
                  22562600.102    92390097.462 7                        32.500  
  22060625.516                   115929479.647 6     -2904.827          46.500  
  22060635.785                                                                  
  20204997.586                   106177925.684 7      -809.466          50.900  
  20205004.164    20205004.160    82736092.749 9                        43.700  
  21878973.328                   114974723.668 7     -1567.024          49.500  
  21878980.258    21878980.137    89590710.456 8                        37.400  
  22944343.078    22944341.879   122650622.111 7      -731.125          48.100  
                  22944349.652    95395002.529 8      -568.650          39.400  
  22818564.664    22818562.879   121764558.758 6      2708.528          43.800  
                  22818573.820    94705627.060 8      2106.625          39.900  
  22413147.320    22413145.770   119769037.140 7     -4401.940          46.400  
                  22413155.422    93153645.325 8     -3423.720          35.400  
  19567687.633    19567687.254   104526909.190 7     -1155.516          47.800  
                  19567694.324    81298820.899 9      -898.737          46.300  
  21518323.719    21518322.520   114906659.913 7      3060.855          46.000  
                  21518329.121    89371837.486 9      2380.668          42.800  
  20973627.867    20973627.605   112234185.585 8     -2955.237          50.800  
                  20973634.793    87293186.626 9     -2298.516          45.400  
  19248920.578    19248919.379   102752124.960 8       222.350          53.000  
                  19248924.922    79918240.240 9       172.934          49.300  
  22472326.117    22472326.211   120212568.461 7      3321.005          47.900  
                  22472335.977    93498105.523 9      2582.999          43.300  
 14 10 17  7 31 15.0000000  0 15G02G05G16G21G25G29G31R05R06R11R12R13 0.000000000
                                R21R22R23                   
  24716692.305                   129887059.038 6     -3210.354          43.000  
                  24716702.043   101210640.580 6                        22.500  
  23313184.563                   122511644.502 6       514.411          45.100  
  23313190.848    23313191.137    95463675.789 7                        29.400  
  24637209.789                   129469393.478 4      3513.560          38.600  
                  24637217.887   100885258.246 5                        15.600  
  22560105.836                   118554248.181 7      2614.893          48.400  
                  22560112.000    92379907.285 7                        32.700  
  22063390.273                   115944009.249 6     -2906.557          46.900  
  22063401.012                                                                  
  20205769.555                   106181979.287 7      -811.464          51.200  
  20205776.426    20205776.422    82739251.400 9                        44.500  
  21880465.773                   114982567.714 7     -1569.914          49.400  
  21880473.055    21880472.934    89596822.697 8                        37.200  
  22945029.984    22945027.613   122654290.929 7      -735.425          48.100  
                  22945035.738    95397856.037 8      -571.993          39.900  
  22816029.570    22816026.848   121751025.149 6      2705.589          44.600  
                  22816036.848    94695100.946 8      2104.337          39.900  
  22417265.500    22417265.594   119791051.207 7     -4403.287          45.500  
                  22417275.125    93170767.350 8     -3424.776          34.800  
  19568772.375    19568771.176   104532700.833 7     -1160.104          47.200  
                  19568778.246    81303325.498 9      -902.304          46.800  
  21515459.320    21515458.824   114891365.536 7      3057.673          46.000  
                  21515465.191    89359941.867 9      2378.188          42.800  
  20976389.742    20976389.246   112248966.002 8     -2956.572          50.500  
                  20976396.434    87304682.503 9     -2299.559          45.700  
  19248713.789    19248712.121   102751022.134 8       219.486          52.800  
                  19248717.781    79917382.486 9       170.711          49.400  
  22469222.453    22469222.547   120195967.825 7      3319.659          48.000  
                  22469232.313    93485193.929 9      2581.957          42.900  
 14 10 17  7 31 20.0000000  0 15G02G05G16G21G25G29G31R05R06R11R12R13 0.000000000
                                R21R22R23                   
  24719747.180                   129903113.151 6     -3211.028          42.800  
                  24719757.328   101223150.253 6                        24.600  
  23312696.383                   122509082.135 6       511.278          43.800  
  23312704.133    23312703.836    95461679.135 7                        28.900  
  24633867.172                   129451826.559 4      3513.355          37.900  
                  24633874.391   100871569.701 5                        14.800  
  22557619.156                   118541178.590 7      2613.358          49.000  
                  22557625.027    92369723.197 7                        31.500  
  22066156.852                   115958547.254 6     -2908.219          46.900  
  22066167.707                                                                  
  20206542.422                   106186042.666 7      -813.396          50.800  
  20206548.941    20206548.996    82742417.665 9                        43.800  
  21881961.172                   114990425.964 7     -1572.711          49.500  
  21881967.867    21881967.629    89602945.988 8                        37.300  
  22945719.945    22945718.629   122657981.009 7      -739.660          48.000  
                  22945726.051    95400726.078 8      -575.282          39.300  
  22813495.352    22813493.801   121737506.208 6      2702.693          44.600  
                  22813503.688    94684586.226 8      2102.087          40.200  
  22421386.844    22421385.527   119813071.806 7     -4404.563          45.700  
                  22421395.180    93187894.449 8     -3425.763          34.900  
  19569860.820    19569859.738   104538515.213 7     -1164.629          47.200  
                  19569866.809    81307847.783 9      -905.818          46.500  
  21512598.695    21512597.613   114876086.606 7      3054.604          46.800  
                  21512603.863    89348058.249 9      2375.803          42.600  
  20979151.688    20979152.133   112263752.707 8     -2957.786          50.300  
                  20979159.672    87316183.261 9     -2300.498          45.600  
  19248509.656    19248507.871   102749933.162 8       216.752          52.400  
                  19248513.531    79916535.500 9       168.588          49.700  
  22466120.664    22466119.582   120179373.853 7      3318.336          48.300  
                  22466129.820    93472287.514 9      2580.927          42.800  
 14 10 17  7 31 25.0000000  0 15G02G05G16G21G25G29G31R05R06R11R12R13 0.000000000
                                R21R22R23                   
  24722803.211                   129919170.938 6     -3211.866          42.200  
                  24722813.125   101235662.818 6                        23.200  
  23312211.898                   122506535.802 6       507.982          44.400  
  23312218.945    23312219.000    95459694.986 7                        29.100  
  24630524.625                   129434261.367 4      3512.905          38.800  
                  24630532.020   100857882.525 5                        16.900  
  22555133.359                   118528117.001 7      2611.663          48.400  
                  22555139.465    92359545.345 7                        32.400  
  22068925.109                   115973093.877 7     -2910.023          48.300  
  22068935.965                                                                  
  20207317.555                   106190116.070 7      -815.488          51.800  
  20207324.133    20207324.188    82745591.744 9                        44.100  
  21883459.711                   114998298.557 7     -1575.677          50.200  
  21883466.406    21883466.344    89609080.468 8                        38.000  
  22946413.492    22946412.527   122661692.491 7      -744.024          47.900  
                  22946420.770    95403612.776 8      -578.688          39.400  
  22810965.766    22810963.512   121724002.099 7      2699.625          45.100  
                  22810973.160    94674083.066 8      2099.702          39.500  
  22425509.242    22425508.512   119835099.322 7     -4406.079          46.100  
                  22425518.047    93205026.931 8     -3426.942          34.900  
  19570954.172    19570953.676   104544352.616 7     -1169.308          47.600  
                  19570960.395    81312387.976 9      -909.458          46.400  
  21509740.266    21509739.066   114860823.238 7      3051.399          46.900  
                  21509745.316    89336186.749 9      2373.310          42.900  
  20981917.797    20981916.129   112278546.017 8     -2959.195          51.200  
                  20981923.551    87327689.145 9     -2301.591          45.800  
  19248308.039    19248306.488   102748858.378 8       213.787          52.300  
                  19248312.266    79915699.555 9       166.281          49.700  
  22463020.055    22463019.090   120162786.803 7      3316.863          48.000  
                  22463029.211    93459386.493 9      2579.777          42.900  
 14 10 17  7 31 30.0000000  0 15G02G05G16G21G25G29G31R05R06R11R12R13 0.000000000
                                R21R22R23                   
  24725859.063                   129935232.412 6     -3212.541          42.300  
                  24725869.504   101248178.212 6                        22.900  
  23311730.133                   122504005.555 6       504.817          45.200  
  23311738.117    23311737.586    95457723.359 7                        28.000  
  24627182.055                   129416697.823 5      3512.597          39.200  
                  24627189.684   100844196.631 5                        15.600  
  22552649.188                   118515063.494 7      2610.086          48.000  
                  22552655.645    92349373.793 7                        31.400  
  22071694.523                   115987649.127 7     -2911.698          48.000  
  22071704.910                                                                  
  20208094.445                   106194199.503 7      -817.458          52.000  
  20208101.551    20208101.488    82748773.638 9                        43.500  
  21884960.250                   115006185.584 7     -1578.525          50.000  
  21884967.531    21884967.234    89615226.195 8                        38.100  
  22947111.922    22947111.074   122665425.522 7      -748.296          47.000  
                  22947119.082    95406516.235 8      -582.004          39.300  
  22808438.250    22808435.762   121710512.741 6      2696.694          44.600  
                  22808445.527    94663591.347 8      2097.427          39.800  
  22429632.984    22429631.551   119857133.737 7     -4407.392          45.300  
                  22429641.203    93222164.772 8     -3427.968          34.900  
  19572050.672    19572049.590   104550213.040 7     -1173.875          48.000  
                  19572056.895    81316946.072 9      -913.012          46.200  
  21506885.641    21506884.324   114845575.528 7      3048.313          47.300  
                  21506890.809    89324327.420 9      2370.914          43.200  
  20984684.047    20984682.262   112293345.875 8     -2960.448          51.100  
                  20984689.684    87339200.141 9     -2302.569          45.500  
  19248110.016    19248108.934   102747797.918 8       211.014          52.300  
                  19248114.711    79914874.756 9       164.119          49.100  
  22459921.102    22459919.785   120146206.615 7      3315.534          47.700  
                  22459929.555    93446490.802 9      2578.745          42.900  
 14 10 17  7 31 35.0000000  0 15G02G05G16G21G25G29G31R05R06R11R12R13 0.000000000
                                R21R22R23                   
  24728916.258                   129951297.674 6     -3213.379          42.100  
                  24728926.758   101260696.573 6                        22.900  
  23311252.195                   122501491.492 6       501.495          44.400  
  23311259.828    23311259.238    95455764.346 7                        29.100  
  24623840.359                   129399136.043 5      3512.171          39.200  
                  24623847.520   100830512.185 5                        15.600  
  22550166.180                   118502018.159 7      2608.370          48.100  
                  22550172.871    92339208.612 7                        32.100  
  22074466.438                   116002213.103 6     -2913.519          46.600  
  22074476.414                                                                  
  20208873.938                   106198293.066 7      -819.559          51.200  
  20208880.750    20208880.688    82751963.428 9                        43.800  
  21886463.836                   115014087.077 7     -1581.490          49.300  
  21886471.000    21886470.820    89621383.196 8                        37.100  
  22947813.766    22947813.742   122669180.095 7      -752.661          47.700  
                  22947822.102    95409436.454 8      -585.400          39.600  
  22805911.234    22805910.387   121697038.241 6      2693.688          44.500  
                  22805920.156    94653111.195 8      2095.091          39.600  
  22433757.422    22433756.691   119879174.933 7     -4408.807          45.700  
                  22433766.344    93239307.892 8     -3429.063          34.500  
  19573151.703    19573151.797   104556096.481 7     -1178.566          47.200  
                  19573158.746    81321522.069 9      -916.657          46.100  
  21504032.328    21504031.949   114830343.726 7      3045.053          46.600  
                  21504038.199    89312480.468 9      2368.373          43.100  
  20987450.563    20987449.246   112308152.484 8     -2961.903          50.500  
                  20987456.551    87350716.385 9     -2303.694          45.100  
  19247913.914    19247912.949   102746751.540 8       208.101          52.200  
                  19247918.609    79914060.903 9       161.858          49.300  
  22456822.383    22456822.477   120129633.512 7      3314.028          48.700  
                  22456831.891    93433600.619 9      2577.574          42.800  
 14 10 17  7 31 40.0000000  0 15G02G05G16G21G25G29G31R05R06R11R12R13 0.000000000
                                R21R22R23                   
  24731973.820                   129967366.821 6     -3214.118          42.900  
                  24731984.613   101273217.973 6                        22.200  
  23310777.063                   122498993.694 6       498.258          44.500  
  23310784.344    23310784.340    95453818.022 7                        28.600  
  24620498.773                   129381576.249 5      3511.823          39.300  
                  24620506.520   100816829.107 5                        17.400  
  22547685.531                   118488981.041 7      2606.762          47.700  
                  22547692.047    92329049.829 7                        32.300  
  22077239.305                   116016785.840 6     -2915.254          45.800  
  22077248.871                                                                  
  20209654.648                   106202396.862 7      -821.577          51.200  
  20209662.047    20209661.809    82755161.185 9                        43.900  
  21887970.508                   115022003.139 7     -1584.380          50.400  
  21887978.258    21887978.254    89627551.546 8                        37.300  
  22948520.313    22948519.816   122672956.298 7      -756.956          47.300  
                  22948528.297    95412373.495 8      -588.740          39.300  
  22803389.063    22803387.746   121683578.811 6      2690.665          44.800  
                  22803397.633    94642642.771 8      2092.741          39.400  
  22437883.203    22437881.887   119901223.056 7     -4410.170          45.300  
                  22437892.242    93256456.398 8     -3430.124          33.800  
  19574257.664    19574257.168   104562003.221 7     -1183.190          47.300  
                  19574264.121    81326116.193 9      -920.259          46.100  
  21501183.344    21501182.027   114815127.862 7      3041.898          46.600  
                  21501188.629    89300645.898 9      2365.918          42.800  
  20990218.023    20990217.762   112322965.786 8     -2963.214          50.200  
                  20990224.715    87362237.830 9     -2304.720          45.000  
  19247720.203    19247719.355   102745719.617 8       205.231          51.900  
                  19247725.137    79913258.292 9       159.627          49.600  
  22453725.773    22453725.395   120113067.341 7      3312.681          48.600  
                  22453735.047    93420715.820 9      2576.528          43.000  
 14 10 17  7 31 45.0000000  0 15G02G05G16G21G25G29G31R05R06R11R12R13 0.000000000
                                R21R22R23                   
  24735031.781                   129983439.642 6     -3214.853          42.100  
                  24735043.160   101285742.228 6                        22.300  
  23310304.594                   122496511.988 6       495.048          44.300  
  23310311.992    23310311.813    95451884.227 7                        29.100  
  24617158.336                   129364018.140 4      3511.480          38.700  
                  24617165.145   100803147.540 5                        16.900  
  22545205.766                   118475952.024 7      2605.153          47.500  
                  22545212.691    92318897.358 7                        32.100  
  22080013.805                   116031367.242 6     -2916.980          46.600  
  22080024.777                                                                  
  20210437.633                   106206510.703 7      -823.581          51.300  
  20210444.211    20210444.207    82758366.772 9                        43.400  
  21889479.945                   115029933.590 7     -1587.263          50.100  
  21889487.051    21889486.930    89633731.110 8                        37.700  
  22949231.961    22949230.527   122676753.926 7      -761.244          47.300  
                  22949238.652    95415327.199 8      -592.079          39.300  
  22800869.203    22800868.824   121670134.428 7      2687.667          45.100  
                  22800878.125    94632186.048 8      2090.399          39.400  
  22442010.469    22442010.207   119923277.934 7     -4411.507          45.800  
                  22442019.977    93273610.170 8     -3431.167          34.600  
  19575368.367    19575366.699   104567932.939 7     -1187.780          48.000  
                  19575374.004    81330728.191 9      -923.825          46.400  
  21498337.008    21498334.871   114799927.718 7      3038.770          46.500  
                  21498341.234    89288823.568 9      2363.488          42.400  
  20992987.109    20992986.969   112337785.629 8     -2964.486          50.500  
                  20992994.270    87373764.363 9     -2305.712          45.600  
  19247528.953    19247528.457   102744701.964 8       202.386          51.800  
                  19247534.238    79912466.783 9       157.415          49.400  
  22450630.414    22450629.684   120096508.139 7      3311.266          48.700  
                  22450639.336    93407836.449 9      2575.429          42.600  
 14 10 17  7 31 50.0000000  0 15G02G05G16G21G25G29G31R05R06R11R12R13 0.000000000
                                R21R22R23                   
  24738091.328                   129999516.237 5     -3215.661          42.000  
                  24738102.238   101298269.421 6                        22.300  
  23309835.102                   122494046.497 6       491.783          44.400  
  23309842.676    23309842.262    95449963.079 7                        29.100  
  24613817.078                   129346461.847 5      3511.089          39.200  
                  24613824.297   100789467.276 5                        16.900  
  22542727.828                   118462931.186 7      2603.482          47.500  
                  22542734.754    92308751.261 7                        32.300  
  22082790.477                   116045957.305 6     -2918.748          46.500  
  22082800.570                                                                  
  20211222.172                   106210634.660 7      -825.616          50.900  
  20211228.926    20211229.039    82761580.239 9                        43.600  
  21890991.680                   115037878.507 7     -1590.169          50.200  
  21890998.727    21890998.723    89639921.941 8                        37.300  
  22949945.578    22949944.379   122680573.210 7      -765.621          47.800  
                  22949952.621    95418297.735 8      -595.480          39.200  
  22798354.258    22798351.770   121656705.102 7      2684.644          45.300  
                  22798361.066    94621741.023 8      2088.053          39.400  
  22446137.930    22446137.906   119945339.724 7     -4412.944          45.400  
                  22446148.023    93290769.306 8     -3432.278          34.900  
  19576481.914    19576480.949   104573885.727 7     -1192.446          47.100  
                  19576488.254    81335358.138 9      -927.459          45.900  
  21495494.133    21495492.113   114784743.443 7      3035.550          47.100  
                  21495498.477    89277013.575 9      2360.984          42.700  
  20995758.781    20995757.465   112352612.151 8     -2965.866          50.300  
                  20995764.535    87385296.098 9     -2306.786          45.000  
  19247341.594    19247340.629   102743698.583 8       199.489          52.200  
                  19247346.762    79911686.381 9       155.153          49.600  
  22447536.422    22447534.754   120079955.966 7      3309.839          48.000  
                  22447544.406    93394962.547 9      2574.319          43.200  
 14 10 17  7 31 55.0000000  0 15G02G05G16G21G25G29G31R05R06R11R12R13 0.000000000
                                R21R22R23                   
  24741151.359                   130015596.272 6     -3216.348          42.100  
                  24741162.738   101310799.313 6                        22.300  
  23309368.914                   122491596.936 6       488.568          44.100  
  23309376.840    23309376.191    95448054.328 7                        28.200  
  24610476.602                   129328907.207 5      3510.733          40.100  
                  24610483.762   100775788.320 5                        17.800  
  22540251.570                   118449918.245 7      2601.887          47.100  
                  22540258.613    92298611.321 7                        32.500  
  22085568.539                   116060555.791 7     -2920.436          47.800  
  22085579.395                                                                  
  20212008.625                   106214768.453 7      -827.617          51.300  
  20212015.320    20212015.434    82764801.376 9                        43.400  
  21892507.008                   115045837.581 7     -1593.010          50.000  
  21892513.703    21892513.641    89646123.803 8                        38.500  
  22950664.398    22950662.965   122684413.663 7      -769.869          47.400  
                  22950671.559    95421284.744 8      -598.780          39.400  
  22795839.000    22795837.332   121643290.429 6      2681.692          45.000  
                  22795847.219    94611307.408 8      2085.749          39.400  
  22450268.836    22450269.164   119967408.102 7     -4414.259          45.900  
                  22450278.930    93307933.566 8     -3433.306          34.100  
  19577600.484    19577599.402   104579861.369 7     -1197.068          47.600  
                  19577607.059    81340005.850 9      -931.053          45.900  
  21492651.094    21492651.422   114769574.823 7      3032.402          46.700  
                  21492657.668    89265215.761 9      2358.533          43.100  
  20998531.055    20998529.621   112367444.977 8     -2967.134          50.500  
                  20998537.043    87396832.728 9     -2307.770          45.600  
  19247155.641    19247155.027   102742709.197 8       196.706          52.300  
                  19247161.043    79910916.856 9       152.995          49.800  
  22444443.688    22444442.723   120063410.517 7      3308.506          48.000  
                  22444452.492    93382093.880 9      2573.277          43.600  
 14 10 17  7 32  0.0000000  0 15G02G05G16G21G25G29G31R05R06R11R12R13 0.000000000
                                R21R22R23                   
  24744212.047                   130031679.956 6     -3216.949          42.500  
                  24744223.074   101323332.025 6                        22.800  
  23308906.273                   122489163.528 6       485.463          44.300  
  23308914.434    23308913.727    95446158.176 7                        28.900  
  24607136.703                   129311354.390 5      3510.483          39.600  
                  24607143.746   100762110.780 5                        16.300  
  22537776.461                   118436913.465 7      2600.381          47.400  
                  22537784.383    92288477.730 7                        31.600  
  22088347.711                   116075162.885 6     -2922.018          46.800  
  22088358.625                                                                  
  20212797.531                   106218912.301 7      -829.493          51.300  
  20212803.758    20212803.930    82768030.340 9                        43.200  
  21894023.359                   115053811.027 7     -1595.768          50.000  
  21894030.230    21894030.109    89652336.868 8                        37.900  
  22951386.484    22951385.520   122688275.654 7      -774.023          46.500  
                  22951394.230    95424288.505 8      -602.022          39.100  
  22793328.453    22793327.371   121629890.720 7      2678.836          46.200  
                  22793337.023    94600885.445 8      2083.529          39.400  
  22454400.352    22454399.270   119989483.161 7     -4415.462          46.400  
                  22454409.156    93325103.038 8     -3434.244          34.400  
  19578723.930    19578723.082   104585860.035 7     -1201.507          47.500  
                  19578730.504    81344671.465 9      -934.504          46.600  
  21489814.789    21489814.176   114754422.016 7      3029.363          46.700  
                  21489820.543    89253430.243 9      2356.174          42.700  
  21001303.375    21001302.762   112382284.397 8     -2968.349          50.300  
                  21001310.184    87408374.486 9     -2308.710          45.900  
  19246972.797    19246972.891   102741734.003 8       193.970          51.900  
                  19246978.668    79910158.369 9       150.868          49.400  
  22441350.789    22441350.176   120046872.040 7      3307.235          48.100  
                  22441359.828    93369230.636 9      2572.288          43.100  
 14 10 17  7 32  5.0000000  0 15G02G05G16G21G25G29G31R05R06R11R12R13 0.000000000
                                R21R22R23                   
  24747273.664                   130047767.087 5     -3217.720          42.000  
                  24747284.340   101335867.433 6                        21.800  
  23308445.508                   122486746.039 6       482.218          44.200  
  23308453.434    23308453.488    95444274.420 7                        28.100  
  24603796.531                   129293803.196 5      3510.077          40.800  
                  24603803.867   100748434.531 5                        17.800  
  22535303.781                   118423916.623 7      2598.722          48.200  
                  22535310.824    92278350.330 7                        31.900  
  22091128.859                   116089778.397 6     -2923.768          45.800  
  22091139.715                                                                  
  20213588.258                   106223065.959 7      -831.516          50.500  
  20213594.660    20213594.422    82771266.952 9                        43.400  
  21895543.367                   115061798.589 7     -1598.648          49.800  
  21895550.473    21895550.293    89658560.934 8                        37.500  
  22952112.648    22952111.684   122692158.956 7      -778.377          46.700  
                  22952120.277    95427308.834 8      -605.404          39.600  
  22790819.891    22790819.277   121616505.743 7      2675.812          45.100  
                  22790828.578    94590474.925 8      2081.183          39.300  
  22458532.828    22458531.746   120011564.763 7     -4416.849          45.400  
                  22458541.750    93342277.569 8     -3435.313          34.900  
  19579850.477    19579850.570   104591881.490 7     -1206.157          47.200  
                  19579857.871    81349354.811 9      -938.118          46.300  
  21486979.359    21486978.746   114739284.948 7      3026.164          46.700  
                  21486985.113    89241656.965 9      2353.683          43.400  
  21004077.031    21004077.008   112397130.159 8     -2969.683          49.900  
                  21004084.309    87419921.176 9     -2309.754          45.200  
  19246792.836    19246792.340   102740772.855 8       191.135          51.500  
                  19246798.473    79909410.811 9       148.659          49.800  
  22438260.211    22438259.832   120030340.307 7      3305.772          48.600  
                  22438269.719    93356372.633 9      2571.156          43.000  
 14 10 17  7 32 10.0000000  0 15G02G05G16G21G25G29G31R05R06R11R12R13 0.000000000
                                R21R22R23                   
  24750335.219                   130063857.869 5     -3218.390          41.300  
                  24750346.480   101348405.687 6                        22.300  
  23307989.117                   122484344.732 6       479.002          44.700  
  23307997.277    23307996.688    95442403.276 7                        28.800  
  24600457.859                   129276253.820 5      3509.755          40.800  
                  24600464.668   100734759.631 5                        17.400  
  22532831.063                   118410927.875 7      2597.137          47.900  
                  22532838.867    92268229.234 7                        31.800  
  22093911.461                   116104402.488 6     -2925.479          45.300  
  22093921.965                                                                  
  20214380.359                   106227229.639 7      -833.516          50.800  
  20214386.762    20214386.699    82774511.377 9                        44.100  
  21897065.852                   115069800.500 7     -1601.503          49.500  
  21897073.191    21897073.188    89664796.179 8                        37.600  
  22952842.172    22952842.852   122696063.656 7      -782.604          45.500  
                  22952851.328    95430345.814 8      -608.690          39.000  
  22788313.891    22788312.457   121603135.807 7      2672.833          45.800  
                  22788322.109    94580076.106 8      2078.863          40.300  
  22462666.695    22462665.496   120033652.997 7     -4418.139          46.600  
                  22462675.148    93359457.260 8     -3436.325          34.400  
  19580982.430    19580981.113   104597925.852 7     -1210.707          47.300  
                  19580988.301    81354055.970 9      -941.654          46.400  
  21484148.406    21484147.324   114724163.649 7      3023.040          46.500  
                  21484153.809    89229895.961 9      2351.246          43.000  
  21006853.281    21006853.020   112411982.360 8     -2970.954          49.200  
                  21006860.324    87431472.875 9     -2310.742          45.400  
  19246615.758    19246614.559   102739825.836 8       188.302          51.800  
                  19246620.453    79908674.242 9       146.460          49.500  
  22435171.914    22435170.949   120013815.523 7      3304.458          48.000  
                  22435180.250    93343520.029 9      2570.134          43.100  
 14 10 17  7 32 15.0000000  0 15G02G05G16G21G25G29G31R05R06R11R12R13 0.000000000
                                R21R22R23                   
  24753397.992                   130079952.495 6     -3219.300          42.100  
                  24753408.902   101360946.917 6                        22.200  
  23307535.008                   122481959.741 6       475.618          45.200  
  23307542.055    23307541.699    95440544.846 7                        28.900  
  24597117.977                   129258706.497 5      3509.209          39.700  
                  24597125.430   100721086.448 5                        16.900  
  22530361.289                   118397947.488 7      2595.331          47.300  
                  22530368.918    92258114.653 7                        31.500  
  22096696.883                   116119035.378 6     -2927.359          46.600  
  22096707.387                                                                  
  20215174.852                   106231403.578 7      -835.687          51.100  
  20215181.020    20215180.840    82777763.795 9                        43.800  
  21898591.773                   115077816.998 7     -1604.547          49.500  
  21898597.766    21898598.289    89671042.794 8                        37.500  
  22953576.781    22953576.875   122699990.026 7      -787.105          45.400  
                  22953585.703    95433399.647 8      -612.196          39.200  
  22785811.016    22785810.520   121589781.062 7      2669.640          46.300  
                  22785820.641    94569689.113 8      2076.378          39.500  
  22466801.195    22466799.879   120055748.060 7     -4419.650          46.600  
                  22466809.531    93376642.291 8     -3437.499          34.200  
  19582117.391    19582117.484   104603993.486 7     -1215.480          47.400  
                  19582124.902    81358775.239 9      -945.378          45.700  
  21481319.414    21481318.566   114709058.502 7      3019.644          46.600  
                  21481324.582    89218147.513 9      2348.609          43.200  
  21009630.641    21009629.441   112426841.311 8     -2972.452          49.700  
                  21009636.629    87443029.828 9     -2311.905          45.900  
  19246441.195    19246440.465   102738893.239 8       185.287          51.800  
                  19246446.129    79907948.889 9       144.115          49.500  
  22432083.547    22432083.523   119997297.913 7      3302.859          47.800  
                  22432093.172    93330673.013 9      2568.889          42.500  
 14 10 17  7 32 20.0000000  0 15G02G05G16G21G25G29G31R05R06R11R12R13 0.000000000
                                R21R22R23                   
  24756461.461                   130096050.703 6     -3219.928          42.200  
                  24756471.902   101373490.953 6                        21.300  
  23307083.742                   122479590.785 6       472.513          44.100  
  23307092.957    23307091.840    95438698.907 7                        29.600  
  24593779.430                   129241160.901 5      3508.985          39.800  
                  24593786.473   100707414.512 5                        16.300  
  22527893.344                   118384975.182 7      2593.819          47.600  
                  22527900.094    92248006.374 7                        31.700  
  22099482.797                   116133676.783 6     -2928.970          46.700  
  22099493.066                                                                  
  20215971.078                   106235587.499 7      -837.560          51.600  
  20215977.539    20215977.418    82781023.988 9                        43.800  
  21900119.492                   115085847.720 7     -1607.276          49.400  
  21900126.539    21900126.711    89677300.485 8                        37.500  
  22954315.273    22954314.426   122703937.736 7      -791.280          45.600  
                  22954323.375    95436470.088 8      -615.441          39.400  
  22783311.133    22783310.520   121576441.353 7      2666.749          46.000  
                  22783320.172    94559313.807 8      2074.128          39.600  
  22470937.070    22470936.223   120077849.832 7     -4420.900          46.400  
                  22470946.227    93393832.513 8     -3438.471          34.000  
  19583258.156    19583257.660   104610083.984 7     -1219.952          47.400  
                  19583265.082    81363512.279 9      -948.850          45.900  
  21478494.156    21478492.605   114693969.118 7      3016.639          46.400  
                  21478499.090    89206411.321 9      2346.282          43.700  
  21012408.141    21012407.293   112441706.656 8     -2973.590          50.100  
                  21012414.598    87454591.749 9     -2312.791          45.500  
  19246269.078    19246267.879   102737974.780 8       182.582          52.000  
                  19246273.656    79907234.533 9       142.005          49.700  
  22428997.398    22428996.316   119980787.282 7      3301.555          48.000  
                  22429005.852    93317831.414 9      2567.881          42.400  
 14 10 17  7 32 25.0000000  0 15G02G05G16G21G25G29G31R05R06R11R12R13 0.000000000
                                R21R22R23                   
  24759526.625                   130112152.821 6     -3220.730          42.300  
                  24759536.363   101386038.038 6                        21.100  
  23306636.453                   122477238.324 6       469.179          44.100  
  23306644.262    23306644.258    95436865.827 7                        28.400  
  24590440.383                   129223617.449 5      3508.502          39.900  
                  24590448.422   100693744.278 6                        18.300  
  22525425.906                   118372011.357 7      2592.078          47.600  
                  22525433.242    92237904.706 7                        31.800  
  22102270.164                   116148327.047 6     -2930.768          46.300  
  22102281.488                                                                  
  20216769.117                   106239781.829 7      -839.706          51.400  
  20216775.109    20216774.871    82784292.288 9                        44.000  
  21901650.703                   115093893.087 7     -1610.242          49.900  
  21901658.395    21901658.098    89683569.595 8                        38.000  
  22955057.523    22955057.383   122707907.188 7      -795.653          45.500  
                  22955066.797    95439557.431 8      -618.834          39.400  
  22780815.320    22780813.770   121563116.912 7      2663.660          46.400  
                  22780822.949    94548950.380 8      2071.734          39.800  
  22475075.156    22475073.605   120099958.559 7     -4422.295          45.900  
                  22475083.141    93411028.156 7     -3439.555          32.800  
  19584402.547    19584401.582   104616197.838 7     -1224.653          46.400  
                  19584409.355    81368267.495 9      -952.511          46.600  
  21475671.578    21475669.793   114678895.964 7      3013.303          47.500  
                  21475676.512    89194687.767 9      2343.680          43.200  
  21015187.352    21015186.387   112456578.836 8     -2975.016          50.800  
                  21015193.691    87466158.996 9     -2313.897          45.200  
  19246099.875    19246098.324   102737070.762 8       179.646          52.100  
                  19246104.102    79906531.403 9       139.725          49.100  
  22425911.102    22425911.781   119964283.839 7      3300.111          47.900  
                  22425921.430    93304995.408 9      2566.752          43.000  
 14 10 17  7 32 30.0000000  0 15G02G05G16G21G25G29G31R05R06R11R12R13 0.000000000
                                R21R22R23                   
  24762591.289                   130128258.390 6     -3221.484          42.200  
                  24762601.086   101398587.807 6                        22.500  
  23306191.734                   122474901.827 6       465.919          44.100  
  23306200.949    23306200.066    95435045.196 7                        27.400  
  24587103.320                   129206075.625 5      3508.118          39.500  
                  24587110.363   100680075.262 5                        16.900  
  22522960.727                   118359055.524 7      2590.403          47.900  
                  22522968.297    92227809.256 7                        31.900  
  22105059.008                   116162985.740 6     -2932.553          45.700  
  22105070.801                                                                  
  20217568.984                   106243986.049 7      -841.744          50.800  
  20217575.270    20217575.090    82787568.307 9                        43.600  
  21903184.539                   115101952.645 7     -1613.173          49.700  
  21903192.113    21903191.758    89689849.758 8                        37.900  
  22955804.414    22955803.684   122711897.948 7      -799.977          45.500  
                  22955813.102    95442661.345 8      -622.201          39.500  
  22778320.867    22778318.965   121549807.464 7      2660.580          45.900  
                  22778328.262    94538598.605 8      2069.338          39.500  
  22479213.672    22479212.355   120122073.712 7     -4423.682          45.900  
                  22479221.539    93428228.816 8     -3440.642          33.900  
  19585550.977    19585550.598   104622334.449 7     -1229.286          46.900  
                  19585558.137    81373040.401 9      -956.102          46.300  
  21472852.422    21472850.637   114663838.700 7      3010.078          47.300  
                  21472857.117    89182976.556 9      2341.170          43.600  
  21017967.422    21017966.457   112471457.291 8     -2976.340          50.000  
                  21017973.645    87477731.117 9     -2314.925          45.600  
  19245933.102    19245932.488   102736180.773 8       176.741          51.600  
                  19245938.035    79905839.188 9       137.465          49.600  
  22422827.727    22422827.703   119947787.153 7      3298.671          47.600  
                  22422837.469    93292164.657 9      2565.633          42.400  
 14 10 17  7 32 35.0000000  0 15G02G05G16G21G25G29G31R05R06R11R12R13 0.000000000
                                R21R22R23                   
  24765656.742                   130144367.466 5     -3222.054          41.700  
                  24765667.008   101411140.304 6                        22.600  
  23305750.094                   122472581.413 6       462.829          44.500  
  23305759.191    23305758.895    95433237.080 7                        29.100  
  24583764.156                   129188535.441 5      3507.949          39.900  
                  24583772.078   100666407.589 5                        16.900  
  22520496.938                   118346107.735 7      2588.966          48.100  
                  22520504.156    92217720.081 7                        31.900  
  22107850.484                   116177652.858 6     -2934.052          45.500  
  22107861.164                                                                  
  20218371.195                   106248200.132 7      -843.576          51.300  
  20218377.305    20218376.949    82790852.001 9                        43.600  
  21904720.977                   115110026.364 7     -1615.846          50.100  
  21904728.961    21904728.430    89696140.953 8                        38.100  
  22956555.398    22956553.848   122715910.050 7      -804.095          45.600  
                  22956563.383    95445781.858 8      -625.409          39.800  
  22775830.445    22775828.543   121536512.884 7      2657.743          47.300  
                  22775837.371    94528258.396 8      2067.138          39.400  
  22483353.148    22483352.418   120144195.340 7     -4424.810          46.100  
                  22483361.836    93445434.494 8     -3441.516          33.500  
  19586705.180    19586703.395   104628494.024 7     -1233.709          47.200  
                  19586711.051    81377831.177 9      -959.549          45.900  
  21470035.320    21470034.121   114648797.031 7      3007.080          46.900  
                  21470040.840    89171277.477 9      2338.842          43.500  
  21020748.969    21020748.238   112486342.122 8     -2977.445          49.800  
                  21020755.426    87489308.202 9     -2315.791          45.100  
  19245769.227    19245768.496   102735304.817 8       174.129          52.200  
                  19245773.805    79905157.883 9       135.437          48.900  
  22419744.961    22419745.289   119931297.345 7      3297.452          47.500  
                  22419754.703    93279339.267 9      2564.682          43.000  
 14 10 17  7 32 40.0000000  0 15G02G05G16G21G25G29G31R05R06R11R12R13 0.000000000
                                R21R22R23                   
  24768722.266                   130160480.350 6     -3222.907          42.500  
                  24768732.707   101423695.764 6                        21.300  
  23305312.438                   122470277.385 6       459.466          44.700  
  23305319.777    23305319.949    95431441.736 7                        29.000  
  24580427.547                   129170997.347 5      3507.388          40.200  
                  24580435.059   100652741.569 5                        15.600  
  22518034.844                   118333168.361 7      2587.179          48.000  
                  22518041.359    92207637.464 7                        32.500  
  22110643.250                   116192328.799 6     -2935.914          46.300  
  22110653.695                                                                  
  20219174.961                   106252424.456 7      -845.712          51.600  
  20219180.602    20219180.539    82794143.672 9                        43.200  
  21906260.094                   115118114.632 7     -1618.854          50.100  
  21906267.785    21906267.313    89702443.494 8                        38.400  
  22957309.180    22957308.918   122719943.855 7      -808.507          45.200  
                  22957318.219    95448919.248 8      -628.837          39.500  
  22773340.594    22773339.863   121523233.836 7      2654.552          46.000  
                  22773348.813    94517930.267 8      2064.650          39.500  
  22487492.688    22487492.191   120166323.884 7     -4426.286          45.400  
                  22487501.727    93462645.544 8     -3442.658          33.100  
  19587861.273    19587860.895   104634676.728 7     -1238.455          46.400  
                  19587868.434    81382639.940 9      -963.237          46.800  
  21467221.227    21467219.676   114633771.830 7      3003.696          46.800  
                  21467226.395    89159591.208 9      2336.210          43.300  
  21023531.555    21023530.473   112501233.635 8     -2978.914          50.000  
                  21023538.129    87500890.477 9     -2316.933          45.300  
  19245608.125    19245607.043   102734443.280 8       171.119          52.500  
                  19245612.586    79904487.798 9       133.088          49.500  
  22416664.844    22416663.293   119914814.803 7      3295.892          48.000  
                  22416672.945    93266519.520 9      2563.470          43.300  
 14 10 17  7 32 45.0000000  0 15G02G05G16G21G25G29G31R05R06R11R12R13 0.000000000
                                R21R22R23                   
  24771789.602                   130176596.712 6     -3223.571          42.100  
                  24771799.750   101436253.956 6                        21.800  
  23304876.758                   122467989.432 6       456.312          44.300  
  23304883.922    23304883.684    95429658.905 7                        29.100  
  24577089.984                   129153461.063 5      3507.095          39.300  
                  24577097.203   100639076.893 6                        18.300  
  22515574.484                   118320237.069 7      2585.623          48.200  
                  22515581.527    92197561.142 7                        32.800  
  22113437.930                   116207013.179 6     -2937.554          46.300  
  22113448.434                                                                  
  20219980.461                   106256658.646 7      -847.642          51.000  
  20219986.453    20219986.391    82797443.041 9                        44.000  
  21907802.094                   115126217.160 7     -1621.649          51.000  
  21907809.375    21907809.078    89708757.141 8                        38.400  
  22958067.750    22958068.078   122723998.938 6      -812.740          44.600  
                  22958077.727    95452073.186 8      -632.128          39.100  
  22770854.070    22770853.105   121509969.683 7      2651.650          46.000  
                  22770862.641    94507613.743 8      2062.385          39.800  
  22491635.414    22491635.273   120188458.900 6     -4427.527          44.900  
                  22491644.453    93479861.633 8     -3443.628          33.800  
  19589023.750    19589022.551   104640882.347 7     -1242.999          46.900  
                  19589030.441    81387466.515 9      -966.768          46.200  
  21464410.148    21464408.949   114618762.610 7      3000.574          46.600  
                  21464415.785    89147917.371 9      2333.781          43.300  
  21026315.430    21026315.051   112516131.573 8     -2980.118          49.900  
                  21026322.355    87512477.747 9     -2317.871          45.700  
  19245449.164    19245448.668   102733595.849 8       168.356          52.500  
                  19245454.098    79903828.681 9       130.943          49.300  
  22413583.672    22413584.000   119898338.970 7      3294.628          48.100  
                  22413593.766    93253704.990 9      2562.487          42.900  
 14 10 17  7 32 50.0000000  0 15G02G05G16G21G25G29G31R05R06R11R12R13 0.000000000
                                R21R22R23                   
  24774857.500                   130192716.551 5     -3224.176          42.000  
                  24774867.238   101448814.848 6                        21.800  
  23304444.477                   122465717.586 6       453.156          44.300  
  23304452.871    23304452.574    95427888.639 7                        29.400  
  24573754.008                   129135926.602 5      3506.826          39.200  
                  24573760.699   100625413.627 5                        15.600  
  22513115.484                   118307313.915 7      2584.033          48.500  
                  22513121.531    92187491.161 8                        33.100  
  22116233.789                   116221706.041 6     -2939.179          46.600  
  22116244.469                                                                  
  20220787.945                   106260902.771 7      -849.544          51.900  
  20220794.758    20220794.695    82800750.148 9                        43.700  
  21909346.719                   115134333.858 7     -1624.421          49.900  
  21909353.707    21909353.410    89715081.831 8                        38.000  
  22958830.133    22958829.992   122728075.385 6      -816.920          44.600  
                  22958839.641    95455243.751 8      -635.382          39.700  
  22768373.086    22768370.949   121496720.729 7      2648.644          47.000  
                  22768379.777    94497309.029 8      2060.049          39.600  
  22495778.703    22495778.563   120210600.408 7     -4428.753          45.400  
                  22495788.328    93497082.777 8     -3444.577          33.600  
  19590189.117    19590188.504   104647110.854 7     -1247.448          47.000  
                  19590196.277    81392310.904 9      -970.235          45.700  
  21461602.359    21461600.926   114603769.244 7      2997.444          46.100  
                  21461607.645    89136255.865 9      2331.344          43.900  
  21029100.508    21029100.246   112531035.827 8     -2981.292          49.800  
                  21029107.668    87524069.929 9     -2318.782          45.900  
  19245293.211    19245292.832   102732762.489 8       165.604          52.400  
                  19245297.789    79903180.504 9       128.807          49.400  
  22410505.383    22410505.004   119881870.033 7      3293.282          48.000  
                  22410514.656    93240895.828 9      2561.442          43.600  
 14 10 17  7 32 55.0000000  0 15G02G05G16G21G25G29G31R05R06R11R12R13 0.000000000
                                R21R22R23                   
  24777926.016                   130208839.869 6     -3224.947          42.200  
                  24777935.520   101461378.460 6                        21.300  
  23304014.641                   122463461.827 6       449.846          44.600  
  23304022.566    23304022.680    95426130.909 7                        28.500  
  24570417.422                   129118393.973 5      3506.359          40.200  
                  24570425.168   100611751.851 5                        17.800  
  22510657.633                   118294398.878 7      2582.340          48.000  
                  22510664.324    92177427.509 7                        32.700  
  22119031.359                   116236407.364 6     -2940.972          46.800  
  22119042.859                                                                  
  20221597.508                   106265156.766 7      -851.589          51.300  
  20221603.734    20221603.848    82804064.941 9                        43.800  
  21910894.102                   115142464.724 7     -1627.334          51.200  
  21910901.148    21910901.086    89721417.563 8                        38.400  
  22959596.672    22959596.648   122732173.154 6      -821.294          44.500  
                  22959606.531    95458430.889 8      -638.782          39.400  
  22765892.313    22765891.113   121483486.832 7      2645.573          46.100  
                  22765900.531    94487016.019 8      2057.665          39.900  
  22499924.477    22499923.980   120232748.251 7     -4430.090          45.800  
                  22499933.281    93514308.826 8     -3445.621          34.300  
  19591360.320    19591360.059   104653362.143 7     -1252.073          47.300  
                  19591367.246    81397173.006 9      -973.830          46.100  
  21458797.281    21458796.434   114588791.921 7      2994.207          45.800  
                  21458803.387    89124606.834 9      2328.831          43.300  
  21031887.641    21031886.559   112545946.526 8     -2982.637          49.800  
                  21031893.746    87535667.119 9     -2319.827          45.500  
  19245139.820    19245139.090   102731943.263 8       162.697          52.100  
                  19245144.164    79902543.331 9       126.542          49.300  
  22407427.711    22407427.805   119865408.121 7      3291.818          47.500  
                  22407437.570    93228092.147 9      2560.293          42.800  
 14 10 17  7 33  0.0000000  0 15G02G05G16G21G25G29G31R05R06R11R12R13 0.000000000
                                R21R22R23                   
  24780994.922                   130224966.783 5     -3225.688          41.600  
                  24781004.777   101473944.851 6                        21.500  
  23303587.609                   122461222.343 6       446.574          43.400  
  23303596.355    23303596.586    95424385.862 7                        28.200  
  24567081.445                   129100863.332 5      3505.928          40.400  
                  24567088.840   100598091.616 5                        16.300  
  22508201.469                   118281492.124 7      2580.657          48.200  
                  22508208.336    92167370.301 8                        33.100  
  22121830.750                   116251117.291 7     -2942.716          47.400  
  22121841.957                                                                  
  20222408.813                   106269420.832 7      -853.659          51.800  
  20222414.746    20222415.094    82807387.585 9                        43.000  
  21912443.578                   115150609.929 7     -1630.230          50.400  
  21912450.977    21912450.797    89727764.463 8                        38.300  
  22960366.703    22960367.031   122736292.384 6      -825.616          44.100  
                  22960376.914    95461634.728 8      -642.149          39.500  
  22763413.719    22763412.871   121470268.089 6      2642.494          44.800  
                  22763422.758    94476734.817 8      2055.260          39.400  
  22504069.734    22504069.121   120254902.776 7     -4431.489          46.000  
                  22504077.836    93531540.094 8     -3446.710          33.700  
  19592535.023    19592533.473   104659636.477 7     -1256.707          48.000  
                  19592540.895    81402053.034 9      -977.437          46.400  
  21455994.977    21455994.129   114573830.560 7      2990.942          45.700  
                  21456000.965    89112970.229 9      2326.288          43.500  
  21034675.719    21034674.051   112560863.680 8     -2983.993          50.300  
                  21034680.887    87547269.325 9     -2320.874          45.900  
  19244989.281    19244988.316   102731138.190 8       159.856          52.400  
                  19244993.391    79901917.158 9       124.334          49.600  
  22404351.539    22404351.398   119848953.225 7      3290.401          47.800  
                  22404361.281    93215293.901 9      2559.202          42.800  
 14 10 17  7 33  5.0000000  0 15G02G05G16G21G25G29G31R05R06R11R12R13 0.000000000
                                R21R22R23                   
  24784064.633                   130241097.278 5     -3226.356          41.300  
                  24784074.313   101486514.054 6                        21.300  
  23303164.414                   122458999.023 6       443.388          43.800  
  23303172.867    23303172.922    95422653.410 7                        28.400  
  24563745.961                   129083334.559 5      3505.624          39.800  
                  24563753.531   100584432.799 5                        17.800  
  22505746.953                   118268593.553 7      2579.069          48.800  
                  22505753.645    92157319.486 8                        33.200  
  22124632.063                   116265835.740 6     -2944.365          46.300  
  22124642.625                                                                  
  20223221.984                   106273694.905 7      -855.590          51.600  
  20223228.387    20223228.559    82810718.030 9                        43.200  
  21913996.922                   115158769.373 7     -1633.004          51.000  
  21914003.793    21914003.496    89734122.467 8                        38.400  
  22961142.203    22961141.590   122740433.076 6      -829.832          44.500  
                  22961151.125    95464855.253 8      -645.419          39.300  
  22760939.586    22760939.324   121457064.636 7      2639.496          45.200  
                  22760948.273    94466465.509 8      2052.934          38.700  
  22508216.781    22508216.520   120277063.851 7     -4432.707          46.000  
                  22508225.703    93548776.449 8     -3447.644          33.300  
  19593714.258    19593713.059   104665933.762 7     -1261.280          48.000  
                  19593720.012    81406950.919 9      -980.991          46.000  
  21453196.617    21453195.652   114558885.474 7      2987.746          46.100  
                  21453202.371    89101346.274 9      2323.806          43.800  
  21037464.945    21037463.277   112575787.237 8     -2985.201          50.400  
                  21037470.230    87558876.543 9     -2321.828          45.000  
  19244840.766    19244838.863   102730347.260 8       157.054          52.100  
                  19244844.172    79901301.992 9       122.151          48.700  
  22401276.742    22401277.305   119832505.454 7      3288.991          48.100  
                  22401287.070    93202501.210 9      2558.099          42.400  
 14 10 17  7 33 10.0000000  0 15G02G05G16G21G25G29G31R05R06R11R12R13 0.000000000
                                R21R22R23                   
  24787134.703                   130257231.345 5     -3227.019          41.600  
                  24787144.090   101499086.020 6                        21.300  
  23302745.398                   122456791.848 6       440.230          44.100  
  23302753.969    23302753.496    95420933.540 7                        29.200  
  24560410.727                   129065807.614 4      3505.339          38.700  
                  24560417.711   100570775.415 5                        16.900  
  22503293.977                   118255703.173 7      2577.516          48.600  
                  22503300.434    92147275.042 7                        32.800  
  22127434.234                   116280562.703 6     -2945.982          46.000  
  22127445.207                                                                  
  20224037.430                   106277978.934 7      -857.513          51.100  
  20224043.715    20224043.887    82814056.228 9                        43.200  
  21915551.945                   115166943.036 7     -1635.784          50.000  
  21915558.875    21915558.871    89740491.541 8                        37.900  
  22961921.508    22961920.426   122744595.170 6      -834.065          45.000  
                  22961929.961    95468092.416 8      -648.710          39.300  
  22758468.680    22758467.832   121443876.427 7      2636.511          46.400  
                  22758476.547    94456208.030 8      2050.618          38.900  
  22512364.852    22512365.414   120299231.350 7     -4433.942          45.500  
                  22512374.359    93566017.789 8     -3448.615          33.100  
  19594897.875    19594896.559   104672253.967 7     -1265.781          47.800  
                  19594903.863    81411866.627 9      -984.495          45.500  
  21450401.195    21450399.762   114543956.264 7      2984.651          45.900  
                  21450406.480    89089734.668 9      2321.396          43.400  
  21040254.047    21040253.199   112590717.197 8     -2986.418          50.000  
                  21040260.504    87570488.724 9     -2322.764          45.400  
  19244694.969    19244694.004   102729570.573 8       154.310          52.200  
                  19244699.078    79900697.901 9       120.017          49.000  
  22398203.164    22398203.023   119816064.717 7      3287.669          47.200  
                  22398213.023    93189713.974 9      2557.075          42.900  
 14 10 17  7 33 15.0000000  0 15G02G05G16G21G25G29G31R05R06R11R12R13 0.000000000
                                R21R22R23                   
  24790204.461                   130273368.850 5     -3227.811          40.800  
                  24790214.551   101511660.677 6                        20.900  
  23302329.031                   122454600.786 6       436.913          43.900  
  23302336.840    23302336.895    95419226.219 7                        29.400  
  24557076.398                   129048282.532 5      3504.848          41.300  
                  24557082.738   100557119.461 5                        17.800  
  22500842.156                   118242820.911 7      2575.787          47.300  
                  22500848.965    92137236.928 7                        32.600  
  22130238.258                   116295298.091 6     -2947.780          46.600  
  22130248.586                                                                  
  20224854.695                   106282272.819 7      -859.601          51.000  
  20224860.863    20224860.801    82817402.102 9                        43.000  
  21917110.242                   115175130.829 7     -1638.711          50.200  
  21917117.055    21917117.168    89746871.629 8                        38.100  
  22962704.023    22962702.941   122748778.629 7      -838.385          45.100  
                  22962712.477    95471346.203 8      -652.071          40.100  
  22756000.266    22755999.184   121430703.363 7      2633.389          46.600  
                  22756007.543    94445962.338 8      2048.190          38.900  
  22516514.633    22516514.609   120321405.292 7     -4435.306          45.700  
                  22516523.203    93583264.160 7     -3449.674          32.900  
  19596084.133    19596082.699   104678596.949 7     -1270.387          47.400  
                  19596090.238    81416800.045 9      -988.076          45.900  
  21447608.234    21447607.270   114529043.223 7      2981.307          46.000  
                  21447613.754    89078135.642 9      2318.792          43.600  
  21043045.570    21043044.605   112605653.502 8     -2987.758          50.100  
                  21043051.793    87582105.834 9     -2323.809          45.500  
  19244552.078    19244551.348   102728807.769 8       151.434          52.300  
                  19244556.656    79900104.604 9       117.785          49.000  
  22395131.211    22395130.598   119799630.887 7      3286.198          47.000  
                  22395140.484    93176932.109 9      2555.931          43.100  
 14 10 17  7 33 20.0000000  0 15G02G05G16G21G25G29G31R05R06R11R12R13 0.000000000
                                R21R22R23                   
  24793276.742                   130289509.840 5     -3228.517          41.800  
                  24793286.422   101524238.055 6                        20.400  
  23301914.336                   122452425.878 6       433.694          43.900  
  23301923.551    23301923.430    95417531.493 7                        28.200  
  24553741.156                   129030759.362 5      3504.470          39.900  
                  24553748.668   100543465.045 5                        16.900  
  22498392.617                   118229946.845 7      2574.113          48.000  
                  22498399.484    92127205.202 8                        33.300  
  22133044.445                   116310041.950 6     -2949.481          46.800  
  22133053.484                                                                  
  20225673.938                   106286576.644 8      -861.584          52.100  
  20225679.637    20225679.574    82820755.727 9                        43.600  
  21918671.031                   115183332.791 7     -1641.538          50.700  
  21918677.551    21918677.488    89753262.761 8                        38.000  
  22963490.328    22963489.598   122752983.518 7      -842.744          45.400  
                  22963499.250    95474616.652 8      -655.464          40.200  
  22753534.461    22753533.145   121417545.519 7      2630.346          47.000  
                  22753541.504    94435728.495 8      2045.821          38.900  
  22520666.148    22520665.418   120343585.627 7     -4436.593          45.900  
                  22520674.133    93600515.502 7     -3450.680          32.900  
  19597275.102    19597274.961   104684962.872 7     -1275.019          47.600  
                  19597282.027    81421751.314 9      -991.676          45.800  
  21444818.523    21444818.145   114514146.109 7      2978.114          46.500  
                  21444824.746    89066548.993 9      2316.312          43.900  
  21045837.563    21045836.832   112620596.085 8     -2989.059          50.100  
                  21045843.668    87593727.835 9     -2324.823          45.500  
  19244412.266    19244411.770   102728059.085 8       148.580          52.700  
                  19244417.082    79899522.294 9       115.561          49.000  
  22392060.469    22392060.207   119783204.071 7      3284.792          47.500  
                  22392070.445    93164155.713 9      2554.829          43.700  
 14 10 17  7 33 25.0000000  0 15G02G05G16G21G25G29G31R05R06R11R12R13 0.000000000
                                R21R22R23                   
  24796348.969                   130305654.296 5     -3229.105          41.300  
                  24796358.707   101536818.122 6                        20.400  
  23301503.547                   122450267.210 6       430.517          43.400  
  23301512.410    23301512.699    95415849.415 7                        29.000  
  24550407.156                   129013238.113 5      3504.208          39.800  
                  24550413.848   100529812.175 5                        16.900  
  22495943.641                   118217080.966 7      2572.586          48.200  
                  22495950.918    92117179.854 7                        32.300  
  22135851.289                   116324794.287 6     -2951.078          46.000  
  22135861.266                                                                  
  20226494.391                   106290890.410 7      -863.488          51.600  
  20226500.500    20226500.555    82824117.106 9                        43.000  
  21920234.273                   115191548.862 7     -1644.283          51.000  
  21920240.969    21920240.906    89759664.887 8                        37.800  
  22964281.406    22964280.910   122757209.647 7      -846.873          45.700  
                  22964290.445    95477903.622 8      -658.678          40.200  
  22751072.852    22751071.418   121404402.949 7      2627.349          47.200  
                  22751079.074    94425506.525 8      2043.490          38.700  
  22524818.258    22524817.879   120365772.380 7     -4437.811          46.300  
                  22524826.594    93617771.828 7     -3451.623          32.900  
  19598471.852    19598471.004   104691351.656 7     -1279.542          47.800  
                  19598478.191    81426720.366 9      -995.199          45.900  
  21442031.961    21442031.465   114499265.309 7      2974.910          45.900  
                  21442038.535    89054975.037 9      2313.816          44.000  
  21048631.602    21048630.754   112635545.030 8     -2990.221          49.900  
                  21048638.293    87605354.774 9     -2325.726          45.900  
  19244274.406    19244273.441   102727324.608 8       145.811          52.000  
                  19244278.750    79898951.030 9       113.412          49.600  
  22388990.156    22388990.250   119766784.241 7      3283.459          47.400  
                  22389000.719    93151384.749 9      2553.794          43.800  
 14 10 17  7 33 30.0000000  0 15G02G05G16G21G25G29G31R05R06R11R12R13 0.000000000
                                R21R22R23                   
  24799421.695                   130321802.486 5     -3229.940          41.600  
                  24799431.434   101549401.087 6                        20.600  
  23301095.586                   122448124.938 6       427.125          43.700  
  23301105.035    23301104.387    95414180.111 7                        29.100  
  24547073.633                   128995719.080 5      3503.648          41.100  
                  24547080.383   100516160.952 5                        16.300  
  22493496.945                   118204223.603 7      2570.784          47.900  
                  22493504.281    92107161.138 7                        32.300  
  22138660.320                   116339555.363 6     -2952.918          46.400  
  22138670.531                                                                  
  20227317.758                   106295214.417 7      -865.627          50.900  
  20227323.516    20227323.395    82827486.450 9                        44.200  
  21921800.586                   115199779.453 7     -1647.286          50.700  
  21921807.398    21921807.395    89766078.325 8                        38.100  
  22965076.273    22965075.660   122761457.512 7      -851.327          45.300  
                  22965085.313    95481207.495 8      -662.139          40.600  
  22748613.000    22748611.801   121391275.877 7      2624.179          47.600  
                  22748619.223    94415296.602 8      2041.028          39.200  
  22528971.539    22528971.160   120387965.834 7     -4439.246          45.800  
                  22528979.875    93635033.361 7     -3452.745          33.000  
  19599672.109    19599671.848   104697763.633 7     -1284.275          47.600  
                  19599679.152    81431707.452 9      -998.881          46.100  
  21439247.750    21439247.137   114484401.004 7      2971.567          45.700  
                  21439253.973    89043413.905 9      2311.224          43.600  
  21051425.852    21051425.590   112650500.608 8     -2991.655          50.200  
                  21051432.895    87616986.872 9     -2326.839          45.500  
  19244138.836    19244138.223   102726604.523 8       142.872          52.100  
                  19244144.004    79898390.959 9       111.127          49.600  
  22385922.531    22385921.684   119750371.712 7      3281.916          48.000  
                  22385932.508    93138619.458 9      2552.598          43.500  
 14 10 17  7 33 35.0000000  0 15G02G05G16G21G25G29G31R05R06R11R12R13 0.000000000
                                R21R22R23                   
  24802496.359                   130337953.835 5     -3230.469          41.400  
                  24802504.340   101561986.563 6                        19.600  
  23300690.398                   122445998.535 6       424.073          43.200  
  23300700.082    23300699.961    95412523.169 7                        28.700  
  24543740.680                   128978201.667 5      3503.434          39.900  
                  24543747.078   100502510.977 5                        17.800  
  22491051.938                   118191374.135 7      2569.301          48.100  
                  22491059.332    92097148.567 7                        32.600  
  22141470.078                   116354324.588 6     -2954.453          45.500  
  22141480.992                                                                  
  20228142.320                   106299548.047 7      -867.450          51.400  
  20228148.254    20228148.309    82830863.300 9                        43.400  
  21923369.563                   115208023.919 7     -1649.953          51.200  
  21923375.672    21923375.844    89772502.575 8                        37.300  
  22965873.688    22965873.547   122765726.355 7      -855.407          45.400  
                  22965883.664    95484527.692 8      -665.313          40.600  
  22746155.172    22746153.855   121378163.731 7      2621.265          47.200  
                  22746161.629    94405098.294 8      2038.755          39.000  
  22533125.695    22533125.199   120410165.338 7     -4440.325          46.200  
                  22533133.207    93652299.611 8     -3453.585          33.400  
  19600877.469    19600876.387   104704198.102 7     -1288.718          47.500  
                  19600884.043    81436712.024 9     -1002.328          46.100  
  21436467.602    21436466.285   114469552.334 7      2968.493          45.700  
                  21436473.473    89031864.941 9      2308.830          43.500  
  21054222.109    21054221.145   112665462.190 8     -2992.717          50.100  
                  21054228.566    87628623.647 9     -2327.668          45.600  
  19244006.664    19244006.402   102725898.124 8       140.226          52.600  
                  19244012.066    79897841.539 9       109.063          49.100  
  22382856.055    22382854.973   119733965.756 7      3280.678          48.400  
                  22382865.797    93125859.283 9      2551.640          44.000  
 14 10 17  7 33 40.0000000  0 15G02G05G16G21G25G29G31R05R06R11R12R13 0.000000000
                                R21R22R23                   
  24805570.844                   130354108.685 5     -3231.212          41.700  
                  24805578.648   101574574.734 6                        20.400  
  23300289.227                   122443888.449 6       420.746          43.100  
  23300298.500    23300298.555    95410878.949 7                        28.700  
  24540405.555                   128960686.279 5      3502.934          40.100  
                  24540413.477   100488862.562 5                        16.900  
  22488607.883                   118178532.977 7      2567.591          47.700  
                  22488615.629    92087142.486 7                        32.900  
  22144282.789                   116369102.335 6     -2956.229          47.000  
  22144293.586                                                                  
  20228969.078                   106303891.693 7      -869.510          51.600  
  20228974.777    20228974.949    82834247.956 9                        43.900  
  21924941.133                   115216282.678 7     -1652.876          50.500  
  21924947.887    21924947.941    89778937.967 8                        37.600  
  22966677.484    22966676.402   122770016.596 7      -859.717          45.700  
                  22966685.820    95487864.534 8      -668.662          40.200  
  22743700.766    22743700.035   121365067.057 7      2618.136          47.500  
                  22743707.340    94394912.021 8      2036.326          38.200  
  22537281.422    22537280.809   120432371.172 7     -4441.661          45.500  
                  22537289.289    93669570.784 8     -3454.613          33.300  
  19602085.969    19602084.535   104710655.528 7     -1293.348          48.000  
                  19602091.840    81441734.465 9     -1005.941          45.700  
  21433690.359    21433688.809   114454720.052 7      2965.198          45.900  
                  21433695.879    89020328.720 9      2306.262          43.700  
  21057019.742    21057018.895   112680430.214 8     -2994.078          50.800  
                  21057025.848    87640265.424 9     -2328.724          45.600  
  19243876.930    19243875.496   102725205.905 8       137.341          51.800  
                  19243881.391    79897303.143 9       106.820          49.500  
  22379791.297    22379790.215   119717566.937 7      3279.229          48.100  
                  22379800.688    93113104.659 9      2550.504          43.600  
 14 10 17  7 33 45.0000000  0 15G02G05G16G21G25G29G31R05R06R11R12R13 0.000000000
                                R21R22R23                   
  24808645.469                   130370267.001 5     -3231.962          42.000  
                  24808654.094   101587165.586 6                        20.600  
  23299891.469                   122441794.541 6       417.486          43.900  
  23299899.746    23299899.801    95409247.334 7                        28.700  
  24537073.602                   128943172.830 5      3502.511          41.000  
                  24537080.352   100475215.754 5                        17.800  
  22486166.453                   118165700.047 7      2565.911          48.200  
                  22486173.438    92077142.815 8                        33.200  
  22147096.125                   116383888.524 6     -2957.932          46.800  
  22147106.395                                                                  
  20229797.211                   106308245.290 7      -871.521          51.200  
  20229803.262    20229803.141    82837640.362 9                        43.700  
  21926515.836                   115224555.606 7     -1655.730          51.100  
  21926521.711    21926521.824    89785384.392 8                        37.700  
  22967483.508    22967483.484   122774328.236 7      -864.059          45.700  
                  22967493.133    95491218.011 9      -672.038          41.100  
  22741248.320    22741247.238   121351985.546 7      2615.060          47.000  
                  22741255.598    94384737.533 8      2033.937          38.800  
  22541437.813    22541436.965   120454583.465 7     -4442.974          45.900  
                  22541445.559    93686846.972 7     -3455.641          32.400  
  19603298.953    19603298.105   104717135.750 7     -1297.918          48.200  
                  19603305.176    81446774.626 9     -1009.495          46.000  
  21430915.555    21430913.887   114439903.836 7      2961.906          45.900  
                  21430921.309    89008804.992 9      2303.706          43.700  
  21059818.609    21059817.176   112695404.535 8     -2995.418          50.500  
                  21059824.246    87651912.100 9     -2329.769          45.900  
  19243750.063    19243749.332   102724527.765 8       134.500          51.600  
                  19243755.113    79896775.695 9       104.613          49.600  
  22376725.516    22376726.078   119701175.123 7      3277.763          48.100  
                  22376736.195    93100355.474 9      2549.369          43.600  
 14 10 17  7 33 50.0000000  0 15G02G05G16G21G25G29G31R05R06R11R12R13 0.000000000
                                R21R22R23                   
  24811721.008                   130386428.678 5     -3232.601          41.600  
                  24811729.340   101599759.090 6                        19.900  
  23299496.109                   122439716.820 6       414.243          43.600  
  23299504.738    23299504.324    95407628.320 7                        27.900  
  24533740.547                   128925661.296 5      3502.147          40.900  
                  24533748.469   100461570.363 6                        18.300  
  22483726.297                   118152875.352 7      2564.287          48.600  
                  22483733.398    92067149.549 8                        33.100  
  22149911.680                   116398683.128 6     -2959.592          46.300  
  22149922.887                                                                  
  20230627.539                   106312608.801 7      -873.495          51.300  
  20230634.176    20230633.938    82841040.494 9                        43.500  
  21928093.070                   115232842.652 7     -1658.536          50.900  
  21928098.828    21928098.883    89791841.818 8                        38.000  
  22968294.695    22968294.434   122778661.181 7      -868.297          46.500  
                  22968304.320    95494588.079 9      -675.341          41.300  
  22738799.445    22738797.777   121338919.491 7      2611.976          46.500  
                  22738807.313    94374575.075 8      2031.525          38.900  
  22545595.484    22545594.754   120476802.068 7     -4444.219          45.600  
                  22545603.703    93704128.081 8     -3456.609          33.100  
  19604516.734    19604515.770   104723638.855 7     -1302.475          47.300  
                  19604522.840    81451832.585 9     -1013.037          46.400  
  21428143.438    21428142.590   114425103.850 7      2958.718          45.600  
                  21428149.777    88997293.897 9      2301.229          44.000  
  21062617.305    21062617.043   112710385.027 8     -2996.636          50.600  
                  21062624.113    87663563.586 9     -2330.718          45.400  
  19243625.820    19243624.738   102723863.641 8       131.700          51.900  
                  19243630.754    79896259.151 9       102.434          49.400  
  22373662.625    22373662.246   119684790.429 7      3276.392          47.600  
                  22373672.484    93087611.825 9      2548.305          43.400  
 14 10 17  7 33 55.0000000  0 15G02G05G16G21G25G29G31R05R06R11R12R13 0.000000000
                                R21R22R23                   
  24814797.039                   130402593.920 5     -3233.286          41.800  
                  24814805.605   101612355.361 6                        20.100  
  23299104.234                   122437655.431 6       410.983          43.000  
  23299113.098    23299112.684    95406022.040 7                        29.300  
  24530408.383                   128908151.796 5      3501.755          40.500  
                  24530416.246   100447926.628 5                        17.800  
  22481286.563                   118140059.036 7      2562.612          48.300  
                  22481294.367    92057162.822 8                        33.400  
  22152729.258                   116413486.279 6     -2961.300          46.900  
  22152739.352                                                                  
  20231459.672                   106316982.370 7      -875.504          51.600  
  20231465.840    20231465.836    82844448.465 9                        43.700  
  21929672.320                   115241143.978 7     -1661.394          51.100  
  21929678.078    21929678.367    89798310.372 8                        37.900  
  22969109.883    22969108.801   122783015.530 7      -872.567          46.700  
                  22969118.688    95497974.777 9      -678.659          41.200  
  22736355.000    22736352.746   121325868.967 7      2608.882          47.000  
                  22736361.809    94364424.706 8      2029.125          38.900  
  22549754.484    22549754.223   120499027.069 6     -4445.490          44.900  
                  22549763.172    93721414.149 7     -3457.592          32.900  
  19605738.664    19605737.582   104730164.914 7     -1307.056          48.100  
                  19605744.770    81456908.403 9     -1016.600          46.400  
  21425373.742    21425373.602   114410320.074 7      2955.464          45.400  
                  21425381.020    88985795.402 9      2298.695          44.000  
  21065417.781    21065416.699   112725371.984 8     -2997.903          50.900  
                  21065423.770    87675220.096 9     -2331.697          45.600  
  19243503.875    19243503.379   102723213.726 8       128.863          51.700  
                  19243509.277    79895753.660 9       100.228          49.500  
  22370601.477    22370600.746   119668412.820 7      3274.974          47.800  
                  22370610.984    93074873.697 9      2547.198          43.500  
 14 10 17  7 34  0.0000000  0 15G02G05G16G21G25G29G31R05R06R11R12R13 0.000000000
                                R21R22R23                   
  24817874.586                   130418762.442 5     -3234.006          41.500  
                  24817882.449   101624954.176 6                        19.900  
  23298713.742                   122435610.028 6       407.725          43.000  
  23298723.191    23298723.070    95404428.217 7                        28.600  
  24527076.906                   128890644.095 5      3501.325          41.000  
                  24527084.477   100434284.223 5                        17.400  
  22478850.055                   118127250.785 7      2560.935          48.200  
                  22478856.922    92047182.377 8                        33.100  
  22155547.953                   116428297.677 6     -2963.006          46.500  
  22155558.281                                                                  
  20232294.313                   106321365.672 7      -877.494          51.300  
  20232299.719    20232299.832    82847864.024 9                        43.600  
  21931254.656                   115249459.246 7     -1664.241          50.900  
  21931260.766    21931261.055    89804789.787 8                        37.700  
  22969928.828    22969927.512   122787391.033 7      -876.857          46.500  
                  22969936.695    95501377.932 9      -681.996          41.400  
  22733911.000    22733910.035   121312833.543 7      2605.814          46.100  
                  22733918.984    94354286.067 8      2026.733          39.900  
  22553914.789    22553914.176   120521258.150 6     -4446.758          44.600  
                  22553923.594    93738704.941 7     -3458.585          32.600  
  19606964.453    19606963.488   104736713.657 7     -1311.615          48.100  
                  19606970.559    81462001.856 9     -1020.146          46.100  
  21422608.766    21422608.270   114395552.454 7      2952.156          45.100  
                  21422615.691    88974309.475 9      2296.122          43.800  
  21068218.805    21068218.426   112740365.062 8     -2999.197          50.400  
                  21068225.730    87686881.364 9     -2332.702          45.600  
  19243384.984    19243383.902   102722577.695 8       126.009          51.800  
                  19243389.680    79895258.970 9        98.005          49.600  
  22367540.625    22367540.953   119652042.103 7      3273.542          47.200  
                  22367551.070    93062140.929 9      2546.085          42.700  
 14 10 17  7 34  5.0000000  0 15G02G05G16G21G25G29G31R05R06R11R12R13 0.000000000
                                R21R22R23                   
  24820951.492                   130434934.559 5     -3234.755          41.800  
                  24820959.531   101637555.822 6                        20.400  
  23298328.867                   122433581.068 6       404.420          43.200  
  23298337.613    23298337.316    95402847.219 7                        28.600  
  24523746.445                   128873138.552 5      3500.880          40.800  
                  24523754.133   100420643.516 5                        16.900  
  22476414.109                   118114451.005 7      2559.220          48.500  
                  22476421.270    92037208.532 8                        33.400  
  22158367.313                   116443117.716 6     -2964.741          46.800  
  22158377.992                                                                  
  20233130.133                   106325759.147 7      -879.542          51.300  
  20233136.008    20233136.121    82851287.504 9                        43.300  
  21932839.688                   115257788.853 7     -1667.110          50.500  
  21932846.617    21932846.555    89811280.383 8                        37.700  
  22970751.094    22970750.715   122791788.085 7      -881.204          46.800  
                  22970760.250    95504797.843 9      -685.379          41.100  
  22731470.922    22731469.723   121299813.712 7      2602.662          46.600  
                  22731478.551    94344159.568 8      2024.290          39.300  
  22558075.609    22558075.113   120543495.703 6     -4448.083          44.300  
                  22558083.945    93756000.788 7     -3459.615          32.600  
  19608194.227    19608193.379   104743285.436 7     -1316.236          47.800  
                  19608200.449    81467113.232 9     -1023.737          45.800  
  21419846.875    21419845.793   114380801.374 7      2948.840          45.700  
                  21419853.332    88962836.418 9      2293.540          43.900  
  21071022.313    21071022.172   112755364.583 8     -3000.495          50.200  
                  21071029.473    87698547.634 9     -2333.712          45.400  
  19243269.234    19243267.918   102721955.983 8       123.149          52.100  
                  19243273.578    79894775.413 9        95.784          49.300  
  22364482.656    22364481.691   119635678.542 7      3272.085          48.200  
                  22364491.813    93049413.729 9      2544.956          43.400  
 14 10 17  7 34 10.0000000  0 15G02G05G16G21G25G29G31R05R06R11R12R13 0.000000000
                                R21R22R23                   
  24824029.672                   130451110.251 5     -3235.488          41.600  
                  24824037.828   101650160.208 6                        19.900  
  23297945.250                   122431568.491 6       401.135          43.000  
  23297953.938    23297954.109    95401278.951 7                        29.600  
  24520416.094                   128855635.116 5      3500.424          40.900  
                  24520423.547   100407004.458 6                        18.300  
  22473980.305                   118101659.647 7      2557.549          48.200  
                  22473986.762    92027241.253 8                        33.600  
  22161189.688                   116457946.365 6     -2966.495          46.000  
  22161199.664                                                                  
  20233967.656                   106330162.716 7      -881.580          50.800  
  20233974.879    20233974.816    82854718.850 9                        43.600  
  21934427.172                   115266132.770 7     -1670.003          50.700  
  21934433.516    21934433.512    89817782.122 8                        37.500  
  22971577.750    22971576.902   122796206.768 7      -885.512          46.600  
                  22971586.320    95508234.581 9      -688.728          41.400  
  22729034.820    22729033.387   121286809.566 7      2599.518          46.200  
                  22729042.332    94334045.261 8      2021.842          39.400  
  22562238.500    22562239.063   120565739.638 6     -4449.391          44.400  
                  22562247.539    93773301.600 8     -3460.625          33.200  
  19609429.352    19609428.035   104749880.244 7     -1320.865          47.200  
                  19609435.340    81472242.510 9     -1027.337          45.900  
  21417087.094    21417086.598   114366066.797 7      2945.549          45.700  
                  21417093.902    88951376.191 9      2290.981          44.000  
  21073827.109    21073826.262   112770370.615 8     -3001.781          50.900  
                  21073833.098    87710218.986 9     -2334.722          45.300  
  19243155.133    19243154.402   102721348.403 8       120.307          52.100  
                  19243160.184    79894302.848 9        93.573          49.300  
  22361424.625    22361423.777   119619322.263 7      3270.632          48.100  
                  22361434.250    93036692.192 9      2543.821          43.000  
 14 10 17  7 34 15.0000000  0 15G02G05G16G21G25G29G31R05R06R11R12R13 0.000000000
                                R21R22R23                   
  24827107.891                   130467289.198 5     -3236.050          41.200  
                  24827116.867   101662767.155 6                        19.600  
  23297565.781                   122429572.040 6       398.002          43.000  
  23297575.113    23297574.699    95399723.283 7                        29.500  
  24517086.102                   128838133.546 5      3500.172          40.200  
                  24517092.793   100393366.858 5                        16.900  
  22471547.266                   118088876.423 7      2556.010          48.200  
                  22471553.840    92017280.311 8                        33.200  
  22164013.273                   116472783.243 6     -2968.049          46.300  
  22164023.191                                                                  
  20234807.445                   106334576.071 7      -883.461          51.200  
  20234814.258    20234814.020    82858157.825 9                        43.400  
  21936017.922                   115274490.651 7     -1672.702          50.700  
  21936024.207    21936024.379    89824294.751 8                        37.700  
  22972407.453    22972407.313   122800646.549 7      -889.684          46.300  
                  22972416.492    95511687.724 8      -691.972          40.900  
  22726601.906    22726599.652   121273820.624 7      2596.577          46.900  
                  22726607.777    94323942.778 8      2019.559          39.600  
  22566402.281    22566401.199   120587989.688 6     -4450.480          44.900  
                  22566410.734    93790607.150 7     -3461.470          32.800  
  19610667.211    19610666.480   104756497.759 7     -1325.293          47.200  
                  19610674.020    81477389.464 9     -1030.781          45.800  
  21414330.727    21414330.113   114351348.295 7      2942.413          45.700  
                  21414337.184    88939928.462 9      2288.538          44.000  
  21076632.039    21076631.777   112785382.695 8     -3002.869          50.500  
                  21076638.730    87721895.035 9     -2335.563          45.700  
  19243043.484    19243042.754   102720754.874 8       117.585          52.500  
                  19243048.180    79893841.214 9        91.457          49.400  
  22358368.438    22358367.590   119602972.997 7      3269.262          47.600  
                  22358377.594    93023976.110 9      2542.762          43.000  
 14 10 17  7 34 20.0000000  0 15G02G05G16G21G25G29G31R05R06R11R12R13 0.000000000
                                R21R22R23                   
  24830188.195                   130483471.801 5     -3236.838          41.600  
                  24830196.527   101675376.998 6                        19.300  
  23297188.641                   122427592.053 6       394.654          42.300  
  23297198.324    23297197.793    95398180.431 7                        29.300  
  24513756.008                   128820634.095 5      3499.696          40.600  
                  24513763.168   100379730.945 5                        16.300  
  22469116.875                   118076101.757 7      2554.233          48.100  
                  22469122.980    92007326.043 7                        33.000  
  22166837.734                   116487628.837 6     -2969.847          46.600  
  22166848.648                                                                  
  20235649.070                   106338999.587 7      -885.548          50.900  
  20235655.941    20235655.645    82861604.715 9                        43.200  
  21937611.313                   115282862.900 7     -1675.619          50.500  
  21937617.656    21937617.711    89830818.570 8                        37.600  
  22973241.727    22973240.879   122805108.001 7      -894.032          46.200  
                  22973250.414    95515157.733 8      -695.359          41.000  
  22724169.773    22724167.754   121260847.444 7      2593.339          46.600  
                  22724176.230    94313852.538 8      2017.042          39.400  
  22570567.523    22570566.793   120610246.291 6     -4451.863          44.300  
                  22570576.445    93807917.806 8     -3462.553          33.500  
  19611910.930    19611910.551   104763138.281 7     -1329.961          47.500  
                  19611917.855    81482554.309 9     -1034.413          45.700  
  21411578.172    21411577.324   114336646.452 7      2938.992          45.400  
                  21411584.512    88928493.688 9      2285.885          43.700  
  21079438.758    21079438.145   112800401.331 8     -3004.250          51.000  
                  21079445.098    87733576.174 9     -2336.633          45.600  
  19242935.414    19242933.980   102720175.613 8       114.695          52.700  
                  19242939.523    79893390.677 9        89.208          49.200  
  22355312.906    22355311.941   119586631.080 7      3267.784          47.300  
                  22355322.414    93011265.737 9      2541.607          43.400  
 14 10 17  7 34 25.0000000  0 15G02G05G16G21G25G29G31R05R06R11R12R13 0.000000000
                                R21R22R23                   
  24833268.531                   130499657.485 5     -3237.442          40.700  
                  24833276.219   101687989.155 6                        19.000  
  23296814.656                   122425628.019 6       391.464          43.000  
  23296824.457    23296823.926    95396650.016 7                        29.700  
  24510426.141                   128803136.455 5      3499.326          40.400  
                  24510433.184   100366096.395 5                        17.800  
  22466687.367                   118063335.108 7      2552.655          48.600  
                  22466693.355    91997378.013 8                        33.200  
  22169664.664                   116502482.511 7     -2971.418          47.100  
  22169674.699                                                                  
  20236492.969                   106343432.740 7      -887.443          51.200  
  20236499.547    20236499.543    82865059.112 9                        43.100  
  21939207.234                   115291248.964 7     -1678.370          51.000  
  21939213.109    21939213.047    89837353.159 8                        37.600  
  22974080.195    22974079.465   122809590.290 7      -898.187          45.800  
                  22974089.117    95518643.945 8      -698.588          40.700  
  22721740.867    22721739.082   121247889.539 7      2590.305          46.000  
                  22721748.027    94303774.212 8      2014.668          39.500  
  22574733.117    22574733.328   120632508.860 6     -4453.020          44.100  
                  22574742.742    93825233.113 8     -3463.461          33.400  
  19613158.594    19613156.926   104769801.380 7     -1334.482          47.800  
                  19613163.762    81487736.711 9     -1037.932          45.700  
  21408828.406    21408826.855   114321960.676 7      2935.839          45.100  
                  21408834.160    88917071.418 9      2283.427          44.200  
  21082247.195    21082246.934   112815425.871 8     -3005.421          50.600  
                  21082253.652    87745261.915 9     -2337.553          46.100  
  19242829.734    19242828.770   102719610.173 8       111.934          52.800  
                  19242834.430    79892950.894 9        87.060          49.400  
  22352259.313    22352258.582   119570295.735 7      3266.488          47.500  
                  22352269.055    92998560.481 9      2540.596          43.800  
 14 10 17  7 34 30.0000000  0 15G02G05G16G21G25G29G31R05R06R11R12R13 0.000000000
                                R21R22R23                   
  24836347.648                   130515846.652 5     -3238.121          40.500  
                  24836356.859   101700604.071 6                        19.000  
  23296444.836                   122423680.293 6       388.247          43.300  
  23296453.641    23296453.402    95395132.300 7                        29.900  
  24507097.430                   128785640.935 5      3498.945          40.700  
                  24507104.180   100352463.530 5                        17.400  
  22464259.148                   118050576.865 7      2550.989          49.300  
                  22464265.723    91987436.530 7                        32.800  
  22172492.258                   116517344.674 6     -2973.084          45.800  
  22172503.113                                                                  
  20237338.320                   106347875.886 7      -889.419          50.400  
  20237344.723    20237344.836    82868521.300 9                        43.400  
  21940805.203                   115299649.193 7     -1681.166          50.300  
  21940811.898    21940811.953    89843898.778 8                        37.200  
  22974923.453    22974922.723   122814094.028 7      -902.455          46.700  
                  22974932.258    95522146.843 9      -701.904          41.300  
  22719315.844    22719314.410   121234947.185 7      2587.251          46.400  
                  22719322.652    94293707.962 8      2012.307          39.300  
  22578899.969    22578900.063   120654777.633 6     -4454.230          44.100  
                  22578910.414    93842553.216 8     -3464.396          34.300  
  19614409.984    19614409.605   104776487.388 7     -1339.036          47.900  
                  19614416.441    81492936.938 9     -1041.475          45.800  
  21406081.828    21406079.926   114307291.269 7      2932.579          45.700  
                  21406087.113    88905661.883 9      2280.896          44.100  
  21085056.305    21085055.105   112830456.743 8     -3006.667          51.000  
                  21085061.941    87756952.582 9     -2338.517          46.300  
  19242726.352    19242725.035   102719058.933 8       109.147          52.500  
                  19242730.461    79892522.153 9        84.891          48.900  
  22349207.359    22349206.043   119553967.760 7      3265.038          48.100  
                  22349216.398    92985860.958 9      2539.472          43.300  
 14 10 17  7 34 35.0000000  0 15G02G05G16G21G25G29G31R05R06R11R12R13 0.000000000
                                R21R22R23                   
  24839430.336                   130532039.092 5     -3238.755          40.600  
                  24839438.258   101713221.563 6                        18.600  
  23296076.914                   122421748.740 6       385.026          42.800  
  23296086.070    23296085.832    95393627.197 7                        29.800  
  24503767.836                   128768147.353 5      3498.570          40.700  
                  24503774.527   100338832.097 6                        18.300  
  22461833.391                   118037826.858 7      2549.343          48.800  
                  22461840.082    91977501.468 8                        33.500  
  22175322.617                   116532215.192 6     -2974.748          46.300  
  22175332.535                                                                  
  20238185.984                   106352328.900 7      -891.388          50.500  
  20238192.270    20238192.266    82871991.183 9                        43.900  
  21942406.570                   115308063.508 7     -1683.985          50.300  
  21942412.621    21942412.734    89850455.371 8                        37.000  
  22975770.063    22975769.098   122818619.059 7      -906.706          46.000  
                  22975778.984    95525666.296 9      -705.211          41.300  
  22716892.336    22716891.488   121222020.273 7      2584.157          45.800  
                  22716900.320    94283653.707 8      2009.896          39.300  
  22583068.852    22583068.945   120677052.625 6     -4455.500          43.900  
                  22583079.414    93859878.173 8     -3465.383          33.600  
  19615665.578    19615664.965   104783196.121 7     -1343.553          48.600  
                  19615671.918    81498154.831 9     -1044.985          45.700  
  21403337.156    21403334.902   114292638.341 7      2929.291          45.600  
                  21403342.441    88894265.163 9      2278.340          44.000  
  21087866.133    21087865.402   112845493.842 8     -3007.890          51.200  
                  21087872.121    87768648.087 9     -2339.466          45.600  
  19242625.516    19242624.199   102718521.478 8       106.386          52.100  
                  19242629.742    79892104.132 9        82.743          49.400  
  22346155.719    22346155.340   119537646.753 7      3263.646          47.800  
                  22346165.578    92973166.850 9      2538.386          43.800  
 14 10 17  7 34 40.0000000  0 15G02G05G16G21G25G29G31R05R06R11R12R13 0.000000000
                                R21R22R23                   
  24842512.664                   130548234.993 5     -3239.519          40.300  
                  24842520.469   101725841.690 5                        17.400  
  23295712.258                   122419833.505 6       381.695          43.200  
  23295721.648    23295721.176    95392134.806 7                        29.300  
  24500439.906                   128750655.824 5      3498.053          40.700  
                  24500446.598   100325202.349 5                        16.900  
  22459408.969                   118025085.222 7      2547.602          48.700  
                  22459415.250    91967572.924 8                        33.200  
  22178154.695                   116547094.144 7     -2976.521          47.200  
  22178163.852                                                                  
  20239034.641                   106356791.871 7      -893.440          50.300  
  20239041.570    20239041.566    82875468.820 9                        43.200  
  21944010.461                   115316491.945 7     -1686.874          50.600  
  21944016.219    21944016.039    89857022.975 8                        37.200  
  22976620.922    22976618.785   122823165.462 7      -911.036          46.200  
                  22976628.906    95529202.375 8      -708.580          41.000  
  22714472.969    22714471.770   121209108.987 7      2580.957          46.100  
                  22714480.598    94273611.628 8      2007.411          39.800  
  22587237.914    22587237.652   120699333.902 6     -4456.799          43.800  
                  22587248.359    93877208.033 8     -3466.389          34.300  
  19616926.555    19616925.473   104789927.693 7     -1348.200          48.200  
                  19616932.191    81503390.493 9     -1048.599          45.900  
  21400596.047    21400594.730   114278001.768 7      2925.935          45.800  
                  21400602.035    88882881.166 9      2275.724          44.300  
  21090677.258    21090676.059   112860537.222 8     -3009.228          51.600  
                  21090683.012    87780348.477 9     -2340.507          46.300  
  19242527.758    19242526.090   102717998.277 8       103.442          52.600  
                  19242531.281    79891697.196 9        80.456          48.900  
  22343106.930    22343105.379   119521332.902 7      3262.136          48.200  
                  22343115.617    92960478.314 9      2537.216          42.800  
 14 10 17  7 34 45.0000000  0 15G02G05G16G21G25G29G31R05R06R11R12R13 0.000000000
                                R21R22R23                   
  24845595.180                   130564434.352 5     -3240.099          40.200  
                  24845602.926   101738464.566 6                        19.000  
  23295351.641                   122417934.674 6       378.495          43.700  
  23295360.973    23295359.973    95390655.194 7                        30.200  
  24497112.055                   128733166.489 5      3497.747          40.800  
                  24497118.160   100311574.296 5                        16.300  
  22456985.336                   118012352.063 7      2546.003          48.600  
                  22456991.910    91957650.996 8                        33.200  
  22180987.680                   116561981.642 6     -2978.137          46.100  
  22180996.484                                                                  
  20239886.250                   106361264.891 7      -895.368          49.900  
  20239892.828    20239892.824    82878954.281 9                        43.400  
  21945617.578                   115324934.600 7     -1689.619          50.700  
  21945623.277    21945623.156    89863601.656 8                        37.100  
  22977474.695    22977473.965   122827733.283 7      -915.225          46.600  
                  22977483.617    95532755.109 9      -711.839          41.700  
  22712055.695    22712055.082   121196213.325 7      2577.893          45.800  
                  22712064.383    94263581.691 8      2005.022          39.600  
  22591409.766    22591409.152   120721621.300 6     -4457.934          43.600  
                  22591420.563    93894542.621 8     -3467.275          34.700  
  19618191.211    19618189.895   104796682.187 7     -1352.704          48.100  
                  19618196.848    81508643.979 9     -1052.106          46.300  
  21397858.148    21397857.184   114263381.696 7      2922.712          45.200  
                  21397864.488    88871510.001 9      2273.217          44.100  
  21093489.078    21093488.816   112875586.920 8     -3010.424          51.400  
                  21093495.535    87792053.793 9     -2341.444          46.000  
  19242432.398    19242430.379   102717489.252 8       100.710          52.200  
                  19242435.922    79891301.285 9        78.327          49.200  
  22340057.563    22340057.422   119505026.228 7      3260.783          47.600  
                  22340067.773    92947795.363 9      2536.160          43.000  
 14 10 17  7 34 50.0000000  0 15G02G05G16G21G25G29G31R05R06R11R12R13 0.000000000
                                R21R22R23                   
  24848678.852                   130580636.903 5     -3240.732          40.800  
                  24848686.246   101751089.913 6                        19.600  
  23294992.734                   122416051.956 6       375.278          44.100  
  23295002.008    23295001.594    95389188.131 7                        29.100  
  24493784.094                   128715679.066 5      3497.369          41.200  
                  24493790.316   100297947.706 5                        16.900  
  22454564.141                   117999627.084 7      2544.372          48.300  
                  22454570.773    91947735.430 8                        33.600  
  22183821.563                   116576877.323 7     -2979.760          47.700  
  22183830.777                                                                  
  20240739.250                   106365747.687 7      -897.325          50.900  
  20240746.121    20240745.941    82882447.369 9                        43.200  
  21947227.188                   115333391.148 7     -1692.389          51.000  
  21947232.828    21947232.766    89870191.165 8                        37.700  
  22978333.461    22978331.676   122832322.254 7      -919.470          46.800  
                  22978341.445    95536324.293 8      -715.142          40.700  
  22709644.109    22709641.621   121183333.237 7      2574.808          46.200  
                  22709651.035    94253563.870 8      2002.630          40.000  
  22595581.469    22595580.973   120743914.686 6     -4459.143          43.900  
                  22595592.266    93911881.872 8     -3468.213          34.000  
  19619459.672    19619458.590   104803459.314 7     -1357.226          48.800  
                  19619465.777    81513915.063 9     -1055.617          46.400  
  21395124.031    21395122.012   114248777.985 7      2919.482          45.800  
                  21395129.551    88860151.556 9      2270.705          44.400  
  21096302.539    21096302.516   112890642.599 8     -3011.592          50.800  
                  21096309.230    87803763.747 9     -2342.341          46.200  
  19242338.406    19242338.027   102716994.135 8        97.948          52.300  
                  19242343.691    79890916.188 9        76.185          49.600  
  22337010.531    22337010.508   119488726.597 7      3259.428          47.500  
                  22337020.625    92935117.878 9      2535.110          43.200  
 14 10 17  7 34 55.0000000  0 15G02G05G16G21G25G29G31R05R06R11R12R13 0.000000000
                                R21R22R23                   
  24851762.563                   130596842.836 5     -3241.466          40.000  
                  24851769.664   101763717.850 6                        18.300  
  23294636.805                   122414185.530 6       371.992          42.600  
  23294646.371    23294646.250    95387733.769 7                        30.000  
  24490455.930                   128698193.815 5      3496.909          41.300  
                  24490462.914   100284322.848 5                        17.800  
  22452143.906                   117986910.480 7      2542.669          48.400  
                  22452150.480    91937826.408 8                        33.200  
  22186657.961                   116591781.457 6     -2981.489          46.700  
  22186667.352                                                                  
  20241594.414                   106370240.435 7      -899.330          51.100  
  20241600.875    20241601.105    82885948.202 9                        43.400  
  21948838.352                   115341861.832 7     -1695.255          51.000  
  21948844.402    21948844.457    89876791.686 8                        37.100  
  22979195.883    22979195.035   122836932.656 7      -923.775          47.000  
                  22979204.688    95539910.139 9      -718.490          41.400  
  22707230.688    22707230.191   121170468.654 7      2571.703          45.100  
                  22707239.844    94243558.094 8      2000.206          40.100  
  22599754.336    22599754.313   120766214.271 6     -4460.402          44.100  
                  22599765.133    93929225.951 8     -3469.193          33.300  
  19620731.867    19620731.605   104810259.252 7     -1361.838          48.300  
                  19620738.559    81519203.896 9     -1059.207          46.200  
  21392391.867    21392389.613   114234190.678 7      2916.149          45.900  
                  21392397.035    88848805.869 9      2268.112          44.000  
  21099117.852    21099117.238   112905704.564 8     -3012.861          51.100  
                  21099124.074    87815478.597 9     -2343.339          45.900  
  19242248.391    19242247.660   102716513.083 8        95.098          52.100  
                  19242253.559    79890542.038 9        73.965          49.500  
  22333965.180    22333964.801   119472433.806 7      3258.003          47.200  
                  22333974.805    92922445.720 9      2533.996          43.300  
 14 10 17  7 35  0.0000000  0 15G02G05G16G21G25G29G31R05R06R11R12R13 0.000000000
                                R21R22R23                   
  24854846.836                   130613051.920 5     -3242.181          39.900  
                  24854854.406   101776348.298 5                        16.900  
  23294285.133                   122412335.188 6       368.704          42.400  
  23294294.934    23294294.578    95386291.951 7                        29.900  
  24487128.602                   128680710.434 5      3496.467          41.000  
                  24487135.703   100270699.397 5                        16.300  
  22449725.844                   117974202.068 7      2540.958          47.700  
                  22449732.008    91927923.761 7                        32.400  
  22189496.016                   116606693.732 6     -2983.183          46.800  
  22189505.289                                                                  
  20242451.273                   106374742.888 7      -901.343          50.800  
  20242458.203    20242458.199    82889456.602 9                        43.200  
  21950453.352                   115350346.335 7     -1698.076          50.400  
  21950459.168    21950458.988    89883402.971 8                        37.000  
  22980062.609    22980062.113   122841564.096 7      -928.039          47.500  
                  22980071.766    95543512.359 8      -721.803          41.000  
  22704823.250    22704822.520   121157619.429 6      2568.514          44.600  
                  22704832.758    94233564.301 8      1997.725          39.900  
  22603929.117    22603927.449   120788519.674 6     -4461.615          44.100  
                  22603939.094    93946574.568 8     -3470.131          34.700  
  19622009.391    19622008.777   104817081.770 7     -1366.349          47.900  
                  19622015.613    81524510.296 9     -1062.719          46.500  
  21389663.477    21389661.340   114219619.721 6      2912.817          45.000  
                  21389668.645    88837472.905 9      2265.526          44.600  
  21101934.188    21101932.402   112920772.464 8     -3014.121          51.300  
                  21101939.355    87827198.062 9     -2344.314          45.800  
  19242160.930    19242160.199   102716045.812 8        92.266          52.500  
                  19242165.980    79890178.598 9        71.767          49.600  
  22330920.297    22330919.801   119456148.205 7      3256.469          47.900  
                  22330929.805    92909779.149 9      2532.806          43.200  
 14 10 17  7 35  5.0000000  0 15G02G05G16G21G25G29G31R05R06R11R12R13 0.000000000
                                R21R22R23                   
  24857931.820                   130629264.295 5     -3242.767          40.000  
                  24857939.391   101788981.307 6                        18.300  
  23293937.398                   122410501.212 6       365.430          43.300  
  23293946.145    23293945.613    95384862.877 7                        30.500  
  24483802.852                   128663229.235 5      3495.997          41.800  
                  24483809.426   100257077.666 5                        17.400  
  22447308.664                   117961502.059 7      2539.272          48.800  
                  22447315.531    91918027.664 8                        33.100  
  22192335.461                   116621614.443 7     -2984.865          47.600  
  22192344.676                                                                  
  20243309.672                   106379255.301 7      -903.329          51.200  
  20243315.898    20243316.070    82892972.766 9                        43.300  
  21952070.742                   115358844.906 7     -1700.898          51.100  
  21952076.969    21952076.672    89890025.223 8                        37.600  
  22980932.977    22980932.012   122846216.920 7      -932.341          47.400  
                  22980942.016    95547131.199 9      -725.150          41.100  
  22702417.813    22702417.199   121144786.028 7      2565.341          45.400  
                  22702427.438    94223582.797 8      1995.258          40.200  
  22608104.484    22608103.285   120810831.322 6     -4462.881          43.200  
                  22608114.695    93963928.021 8     -3471.119          34.800  
  19623291.148    19623289.832   104823927.166 7     -1370.947          47.600  
                  19623297.137    81529834.481 9     -1066.289          46.400  
  21386937.320    21386935.770   114205065.372 6      2909.488          45.000  
                  21386943.074    88826152.861 9      2262.928          44.300  
  21104750.805    21104749.605   112935846.610 8     -3015.372          51.700  
                  21104756.441    87838922.380 9     -2345.287          45.700  
  19242076.492    19242075.527   102715592.697 8        89.433          51.900  
                  19242081.070    79889826.172 9        69.560          49.400  
  22327878.289    22327877.559   119439869.778 7      3255.038          47.600  
                  22327887.211    92897118.159 9      2531.689          43.400  
 14 10 17  7 35 10.0000000  0 15G02G05G16G21G25G29G31R05R06R11R12R13 0.000000000
                                R21R22R23                   
  24861017.438                   130645480.039 5     -3243.333          39.200  
                  24861025.125   101801616.936 5                        17.400  
  23293591.063                   122408683.519 6       362.288          43.700  
  23293599.516    23293599.629    95383446.486 7                        30.000  
  24480476.352                   128645750.092 5      3495.751          41.500  
                  24480483.102   100243457.522 5                        16.300  
  22444893.227                   117948810.368 7      2537.731          48.200  
                  22444900.445    91908138.044 8                        33.200  
  22195176.156                   116636543.467 6     -2986.410          46.600  
  22195185.547                                                                  
  20244169.977                   106383777.600 7      -905.179          50.500  
  20244176.555    20244176.609    82896496.636 9                        43.100  
  21953690.383                   115367357.508 7     -1703.572          50.500  
  21953696.023    21953696.078    89896658.410 8                        36.900  
  22981806.453    22981806.191   122850890.948 7      -936.437          46.800  
                  22981816.313    95550766.544 9      -728.339          42.000  
  22700016.578    22700015.379   121131968.291 7      2562.352          45.300  
                  22700025.266    94213613.488 8      1992.924          40.400  
  22612280.352    22612280.680   120833149.024 6     -4463.964          44.600  
                  22612291.738    93981286.209 8     -3471.970          34.300  
  19624576.531    19624575.098   104830795.226 7     -1375.352          48.200  
                  19624582.402    81535176.301 9     -1069.716          45.900  
  21384214.328    21384214.188   114190527.416 6      2906.344          44.700  
                  21384221.723    88814845.563 9      2260.488          44.700  
  21107568.953    21107567.285   112950926.902 8     -3016.451          51.400  
                  21107574.238    87850651.488 9     -2346.128          45.300  
  19241994.758    19241994.145   102715153.611 8        86.734          52.000  
                  19241999.809    79889484.667 9        67.460          49.200  
  22324836.531    22324835.684   119423598.376 7      3253.792          47.900  
                  22324845.570    92884462.634 9      2530.727          42.800  
 14 10 17  7 35 15.0000000  0 15G02G05G16G21G25G29G31R05R06R11R12R13 0.000000000
                                R21R22R23                   
  24864103.852                   130661699.235 5     -3244.080          39.200  
                  24864111.715   101814255.234 5                        16.300  
  23293247.969                   122406882.270 6       358.953          43.900  
  23293257.184    23293256.828    95382042.910 7                        30.600  
  24477149.969                   128628273.240 5      3495.232          41.200  
                  24477156.895   100229839.175 5                        17.800  
  22442480.391                   117936127.256 7      2535.948          48.800  
                  22442486.789    91898255.116 8                        33.400  
  22198018.148                   116651481.057 6     -2988.198          46.400  
  22198027.891                                                                  
  20245032.977                   106388309.950 7      -907.258          50.900  
  20245039.320    20245039.434    82900028.326 9                        43.800  
  21955312.953                   115375884.328 7     -1706.484          51.300  
  21955318.945    21955319.059    89903302.670 8                        37.500  
  22982684.156    22982684.719   122855586.469 7      -940.815          46.400  
                  22982694.953    95554418.601 9      -731.741          41.300  
  22697618.313    22697615.941   121119166.299 7      2559.141          45.900  
                  22697625.824    94203656.406 8      1990.443          40.400  
  22616458.539    22616457.457   120855472.908 6     -4465.247          44.000  
                  22616468.164    93998649.199 8     -3472.959          34.600  
  19625866.289    19625865.324   104837686.238 7     -1380.027          47.800  
                  19625872.629    81540535.977 9     -1073.354          45.700  
  21381495.188    21381494.809   114176006.208 7      2902.908          45.500  
                  21381502.465    88803551.287 9      2257.818          44.400  
  21110388.016    21110387.285   112966013.536 8     -3017.802          51.700  
                  21110394.121    87862385.520 9     -2347.179          45.700  
  19241914.336    19241913.840   102714728.686 8        83.868          51.900  
                  19241919.387    79889154.164 9        65.231          49.500  
  22321796.328    22321794.660   119407334.245 7      3252.235          48.200  
                  22321804.898    92871812.768 9      2529.513          43.200  
 14 10 17  7 35 20.0000000  0 15G02G05G16G21G25G29G31R05R06R11R12R13 0.000000000
                                R21R22R23                   
  24867191.422                   130677921.715 5     -3244.721          39.400  
                  24867198.992   101826896.110 5                        17.400  
  23292908.766                   122405097.340 6       355.712          44.200  
  23292917.980    23292917.508    95380652.053 7                        30.600  
  24473825.383                   128610798.444 5      3494.813          41.100  
                  24473831.488   100216222.480 5                        16.900  
  22440068.531                   117923452.522 7      2534.304          48.600  
                  22440075.164    91888378.705 7                        33.000  
  22200862.641                   116666427.004 7     -2989.822          47.300  
  22200871.914                                                                  
  20245897.336                   106392852.212 7      -909.219          51.200  
  20245904.031    20245904.262    82903567.751 9                        43.000  
  21956938.438                   115384425.218 7     -1709.267          50.900  
  21956943.961    21956944.016    89909957.899 8                        37.800  
  22983567.063    22983566.801   122860303.233 7      -945.025          46.400  
                  22983577.039    95558087.186 9      -735.016          41.200  
  22695221.492    22695220.293   121106380.163 7      2556.009          45.800  
                  22695230.063    94193711.669 8      1987.998          40.500  
  22620637.844    22620636.762   120877802.910 6     -4466.448          43.900  
                  22620647.352    94016016.934 8     -3473.892          34.800  
  19627160.836    19627159.637   104844600.147 7     -1384.558          48.000  
                  19627166.707    81545913.455 9     -1076.878          46.000  
  21378780.289    21378778.387   114161501.721 6      2899.613          44.900  
                  21378786.043    88792270.016 9      2255.256          44.400  
  21113208.930    21113208.199   112981106.378 8     -3019.041          51.100  
                  21113214.801    87874124.381 9     -2348.140          45.900  
  19241838.063    19241837.332   102714317.837 8        81.059          51.600  
                  19241842.758    79888834.608 9        63.048          49.500  
  22318756.844    22318756.703   119391077.417 7      3250.830          48.000  
                  22318766.234    92859168.583 9      2528.423          43.000  
 14 10 17  7 35 25.0000000  0 15G02G05G16G21G25G29G31R05R06R11R12R13 0.000000000
                                R21R22R23                   
  24870278.383                   130694147.373 5     -3245.364          39.300  
                  24870286.363   101839539.486 5                        16.900  
  23292571.656                   122403328.566 6       352.487          43.100  
  23292580.637    23292580.984    95379273.787 7                        30.400  
  24470500.695                   128593325.696 5      3494.430          40.900  
                  24470506.977   100202607.305 5                        17.400  
  22437658.508                   117910786.056 7      2532.656          48.800  
                  22437665.082    91878508.753 8                        33.200  
  22203708.016                   116681381.182 7     -2991.468          47.300  
  22203717.582                                                                  
  20246763.422                   106397404.273 7      -911.167          51.000  
  20246769.941    20246769.996    82907114.813 9                        43.200  
  21958566.102                   115392979.998 7     -1712.041          50.500  
  21958572.094    21958571.973    89916623.941 8                        37.200  
  22984452.516    22984453.430   122865041.265 7      -949.275          45.600  
                  22984464.020    95561772.307 9      -738.320          41.700  
  22692829.258    22692827.590   121093609.714 7      2552.853          46.100  
                  22692836.887    94183779.119 8      1985.553          40.200  
  22624817.102    22624816.605   120900138.819 6     -4467.639          44.000  
                  22624827.195    94033389.280 8     -3474.823          34.600  
  19628459.391    19628458.074   104851536.602 7     -1389.070          48.200  
                  19628465.496    81551308.463 9     -1080.384          45.900  
  21376066.633    21376065.199   114147013.543 7      2896.338          45.500  
                  21376072.504    88781001.436 9      2252.705          44.900  
  21116030.211    21116029.363   112996205.173 8     -3020.200          51.600  
                  21116036.316    87885867.875 9     -2349.039          46.000  
  19241763.539    19241762.574   102713920.961 8        78.267          52.400  
                  19241768.117    79888525.930 9        60.874          49.500  
  22315719.633    22315718.316   119374827.519 7      3249.427          48.100  
                  22315727.852    92846529.782 9      2527.328          43.000  
 14 10 17  7 35 30.0000000  0 15G02G05G16G21G25G29G31R05R06R11R12R13 0.000000000
                                R21R22R23                   
  24873367.398                   130710376.465 5     -3246.030          39.600  
                  24873375.262   101852185.514 5                        16.900  
  23292238.602                   122401576.232 6       349.220          43.300  
  23292247.816    23292247.695    95377908.318 7                        29.700  
  24467176.211                   128575855.240 5      3493.993          41.400  
                  24467182.609   100188993.940 6                        18.300  
  22435249.023                   117898128.142 7      2530.964          48.800  
                  22435255.656    91868645.442 8                        33.100  
  22206555.344                   116696343.821 6     -2993.154          46.900  
  22206565.145                                                                  
  20247631.164                   106401966.350 7      -913.156          50.300  
  20247638.035    20247637.855    82910669.671 9                        43.000  
  21960196.508                   115401548.868 7     -1714.843          50.400  
  21960202.969    21960202.672    89923300.973 8                        36.900  
  22985344.188    22985343.457   122869800.583 7      -953.507          47.200  
                  22985354.047    95565473.989 9      -741.612          41.400  
  22690437.547    22690437.641   121080855.025 7      2549.779          46.500  
                  22690446.352    94173858.825 8      1983.156          39.600  
  22628997.750    22628997.609   120922480.854 6     -4468.821          44.300  
                  22629008.078    94050766.379 8     -3475.743          34.600  
  19629762.891    19629761.457   104858495.968 7     -1393.631          48.300  
                  19629768.527    81556721.295 9     -1083.929          45.600  
  21373357.000    21373354.512   114132542.195 7      2892.969          45.800  
                  21373362.168    88769745.945 9      2250.083          44.100  
  21118852.805    21118852.309   113011310.271 8     -3021.431          51.700  
                  21118859.730    87897616.270 9     -2350.000          46.000  
  19241691.758    19241690.559   102713538.286 8        75.485          52.400  
                  19241695.750    79888228.293 9        58.709          49.400  
  22312683.555    22312681.887   119358585.003 7      3247.996          48.400  
                  22312691.656    92833896.728 9      2526.213          42.800  
 14 10 17  7 35 35.0000000  0 15G02G05G16G21G25G29G31R05R06R11R12R13 0.000000000
                                R21R22R23                   
  24876455.992                   130726608.716 4     -3246.753          38.900  
                  24876463.973   101864833.987 5                        17.400  
  23291908.063                   122399840.128 6       345.828          43.000  
  23291917.453    23291916.863    95376555.515 7                        30.200  
  24463852.523                   128558386.866 5      3493.439          41.500  
                  24463858.629   100175382.195 5                        17.800  
  22432842.273                   117885478.547 7      2529.189          48.300  
                  22432849.023    91858788.632 8                        33.600  
  22209404.375                   116711314.749 6     -2994.914          46.800  
  22209414.352                                                                  
  20248501.219                   106406538.229 7      -915.222          50.300  
  20248508.324    20248507.910    82914232.169 9                        43.000  
  21961829.617                   115410131.677 7     -1717.739          50.500  
  21961836.254    21961835.898    89929988.852 8                        36.900  
  22986239.492    22986237.941   122874581.165 7      -957.856          46.900  
                  22986248.414    95569192.208 9      -744.999          41.400  
  22688052.352    22688049.512   121068115.891 7      2546.530          46.200  
                  22688058.340    94163950.632 8      1980.632          39.800  
  22633179.711    22633179.805   120944828.774 6     -4470.124          43.000  
                  22633191.098    94068148.059 8     -3476.754          34.700  
  19631068.633    19631068.609   104865478.034 7     -1398.269          48.200  
                  19631075.441    81562151.779 9     -1087.537          45.900  
  21370648.914    21370647.949   114118087.465 7      2889.544          45.700  
                  21370655.723    88758503.374 9      2247.426          44.300  
  21121676.250    21121676.227   113026421.494 8     -3022.806          51.100  
                  21121683.410    87909369.432 9     -2351.069          45.700  
  19241623.063    19241622.566   102713169.541 8        72.603          52.400  
                  19241627.879    79887941.487 9        56.471          49.700  
  22309647.172    22309646.910   119342349.554 7      3246.449          47.700  
                  22309656.797    92821269.163 9      2525.017          42.700  
 14 10 17  7 35 40.0000000  0 15G02G05G16G21G25G29G31R05R06R11R12R13 0.000000000
                                R21R22R23                   
  24879545.156                   130742844.105 4     -3247.379          38.400  
                  24879553.254   101877484.954 5                        17.400  
  23291581.344                   122398120.153 6       342.626          43.000  
  23291590.090    23291589.734    95375215.273 7                        30.400  
  24460528.828                   128540920.480 6      3493.042          42.100  
                  24460534.934   100161772.047 6                        18.600  
  22430436.477                   117872837.220 7      2527.551          48.200  
                  22430443.344    91848938.254 8                        33.200  
  22212254.547                   116726293.795 6     -2996.525          46.800  
  22212264.875                                                                  
  20249373.563                   106411119.816 7      -917.144          50.500  
  20249380.023    20249380.137    82917802.234 9                        43.300  
  21963465.727                   115418728.311 7     -1720.493          50.300  
  21963471.953    21963471.832    89936687.520 8                        37.100  
  22987137.297    22987136.449   122879382.828 7      -962.093          46.600  
                  22987146.922    95572926.807 9      -748.292          41.600  
  22685666.422    22685665.809   121055392.406 7      2543.375          45.600  
                  22685674.992    94154054.612 8      1978.173          39.600  
  22637362.773    22637362.512   120967182.561 6     -4471.287          42.700  
                  22637373.102    94085534.291 8     -3477.665          34.400  
  19632380.836    19632380.105   104872482.589 7     -1402.798          48.300  
                  19632386.941    81567599.758 9     -1091.063          45.500  
  21367944.984    21367944.137   114103649.095 7      2886.317          45.400  
                  21367952.145    88747273.520 9      2244.916          44.500  
  21124501.820    21124501.207   113041538.545 8     -3023.976          51.100  
                  21124508.277    87921127.116 9     -2351.977          45.300  
  19241556.539    19241555.457   102712814.530 8        69.837          52.300  
                  19241560.648    79887665.369 9        54.317          48.600  
  22306613.227    22306613.320   119326121.122 7      3245.090          47.500  
                  22306623.203    92808647.063 9      2523.957          43.000  
 14 10 17  7 35 45.0000000  0 15G02G05G16G21G25G29G31R05R06R11R12R13 0.000000000
                                R21R22R23                   
  24882635.031                   130759082.710 4     -3248.022          39.000  
                  24882644.008   101890138.365 5                        15.600  
  23291256.305                   122396416.435 6       339.404          43.100  
  23291265.578    23291265.809    95373887.694 7                        30.400  
  24457205.688                   128523456.143 5      3492.686          41.700  
                  24457211.441   100148163.426 6                        19.600  
  22428032.219                   117860204.268 7      2525.883          48.100  
                  22428039.496    91839094.404 8                        33.200  
  22215106.234                   116741281.111 6     -2998.148          46.300  
  22215116.914                                                                  
  20250246.906                   106415711.204 7      -919.061          50.100  
  20250253.426    20250253.422    82921379.935 9                        43.600  
  21965104.453                   115427338.898 7     -1723.266          50.000  
  21965110.387    21965110.266    89943397.059 8                        37.700  
  22988039.289    22988037.621   122884205.614 7      -966.273          46.100  
                  22988048.328    95576677.846 9      -751.541          41.200  
  22683285.305    22683283.754   121042684.865 7      2540.208          45.500  
                  22683293.051    94144170.992 8      1975.717          39.600  
  22641546.008    22641545.984   120989542.285 6     -4472.463          43.200  
                  22641557.160    94102925.170 8     -3478.580          34.100  
  19633696.852    19633695.184   104879509.915 7     -1407.330          48.100  
                  19633702.020    81573065.453 9     -1094.589          46.200  
  21365244.273    21365243.426   114089227.349 7      2882.963          45.200  
                  21365251.434    88736056.610 9      2242.303          44.400  
  21127327.227    21127327.320   113056661.685 8     -3025.184          50.900  
                  21127333.801    87932889.556 9     -2352.920          45.100  
  19241492.711    19241491.980   102712473.518 8        67.053          53.000  
                  19241497.406    79887400.134 9        52.152          49.500  
  22303581.313    22303580.699   119309899.733 7      3243.660          48.200  
                  22303590.352    92796030.433 9      2522.851          43.200  
 14 10 17  7 35 50.0000000  0 15G02G05G16G21G25G29G31R05R06R11R12R13 0.000000000
                                R21R22R23                   
  24885726.344                   130775324.703 5     -3248.685          39.200  
                  24885734.266   101902794.461 5                        16.300  
  23290935.789                   122394729.215 6       336.080          43.900  
  23290944.887    23290944.824    95372572.975 7                        30.900  
  24453882.945                   128505994.254 6      3492.155          42.200  
                  24453888.582   100134556.778 6                        19.300  
  22425629.820                   117847579.959 7      2524.159          48.700  
                  22425637.391    91829257.284 7                        32.700  
  22217960.164                   116756276.941 7     -2999.883          47.200  
  22217970.258                                                                  
  20251122.781                   106420312.603 7      -921.108          50.900  
  20251129.477    20251129.238    82924965.431 9                        43.300  
  21966745.539                   115435963.653 7     -1726.117          50.400  
  21966751.473    21966751.527    89950117.634 8                        37.400  
  22988944.914    22988944.418   122889049.944 7      -970.605          46.400  
                  22988954.891    95580445.636 9      -754.912          42.200  
  22680906.930    22680905.379   121029993.226 7      2537.017          45.300  
                  22680915.266    94134299.739 8      1973.226          39.300  
  22645732.000    22645731.504   121011908.175 6     -4473.695          43.000  
                  22645742.445    94120320.806 8     -3479.526          34.600  
  19635016.484    19635015.520   104886560.104 7     -1411.920          48.100  
                  19635022.707    81578548.921 9     -1098.159          46.200  
  21362546.930    21362545.496   114074822.484 7      2879.605          45.200  
                  21362553.387    88724852.827 9      2239.689          44.600  
  21130155.359    21130154.043   113071791.120 8     -3026.451          51.800  
                  21130160.879    87944656.884 9     -2353.911          45.500  
  19241431.641    19241429.973   102712146.801 9        64.179          53.400  
                  19241435.164    79887146.019 9        49.916          49.300  
  22300550.102    22300548.082   119293685.751 7      3242.183          47.800  
                  22300558.086    92783419.568 9      2521.694          42.800  
 14 10 17  7 35 55.0000000  0 15G02G05G16G21G25G29G31R05R06R11R12R13 0.000000000
                                R21R22R23                   
  24888818.188                   130791569.867 4     -3249.241          38.600  
                  24888826.109   101915452.988 5                        15.600  
  23290617.906                   122393058.247 6       332.922          43.600  
  23290625.949    23290626.648    95371270.921 7                        31.600  
  24450560.375                   128488534.457 5      3491.850          41.900  
                  24450566.422   100120951.722 6                        19.300  
  22423229.227                   117834964.003 7      2522.571          48.300  
                  22423236.387    91819426.671 7                        33.000  
  22220815.883                   116771280.995 7     -3001.421          48.200  
  22220825.918                                                                  
  20252000.039                   106424923.817 7      -922.993          50.200  
  20252007.379    20252007.023    82928558.578 9                        43.200  
  21968389.711                   115444602.335 7     -1728.807          50.200  
  21968395.703    21968395.465    89956849.064 8                        36.900  
  22989855.219    22989854.840   122893915.353 7      -974.755          47.200  
                  22989865.664    95584229.834 9      -758.145          41.800  
  22678531.336    22678530.020   121017317.280 7      2533.965          45.800  
                  22678539.438    94124440.704 8      1970.853          39.500  
  22649919.852    22649919.121   121034279.757 6     -4474.727          43.300  
                  22649929.711    94137720.884 8     -3480.337          34.400  
  19636339.688    19636338.723   104893632.983 7     -1416.348          48.500  
                  19636345.793    81584050.039 9     -1101.603          46.300  
  21359852.508    21359850.723   114060434.089 6      2876.381          44.900  
                  21359858.496    88713661.854 9      2237.182          44.800  
  21132983.555    21132982.590   113086926.549 8     -3027.535          51.300  
                  21132990.012    87956428.873 9     -2354.750          45.300  
  19241372.734    19241371.418   102711833.927 8        61.517          52.500  
                  19241376.727    79886902.673 9        47.843          49.300  
  22297520.508    22297520.129   119277478.902 7      3240.846          47.700  
                  22297529.898    92770814.258 9      2520.655          43.000  
 14 10 17  7 36  0.0000000  0 15G02G05G16G21G25G29G31R05R06R11R12R13 0.000000000
                                R21R22R23                   
  24891909.844                   130807818.222 5     -3249.895          39.200  
                  24891918.352   101928114.031 5                        15.600  
  23290303.891                   122391403.548 6       329.655          43.800  
  23290311.758    23290311.637    95369981.545 7                        31.400  
  24447237.992                   128471076.781 5      3491.382          42.000  
                  24447244.566   100107348.329 6                        19.600  
  22420829.859                   117822356.418 7      2520.856          48.500  
                  22420837.020    91809602.588 8                        33.200  
  22223672.242                   116786293.298 7     -3003.104          47.200  
  22223682.395                                                                  
  20252879.633                   106429544.880 7      -924.999          50.900  
  20252886.563    20252886.324    82932159.406 9                        43.000  
  21970035.781                   115453254.905 7     -1731.617          50.300  
  21970041.539    21970041.770    89963591.319 8                        37.200  
  22990769.109    22990769.203   122898802.078 7      -978.998          46.600  
                  22990779.555    95588030.611 9      -761.444          42.200  
  22676158.148    22676157.418   121004657.187 7      2530.768          45.300  
                  22676166.953    94114593.987 8      1968.369          39.700  
  22654108.281    22654106.027   121056657.223 6     -4475.943          42.400  
                  22654117.438    94155125.551 8     -3481.284          34.800  
  19637668.586    19637667.270   104900728.440 7     -1420.891          48.400  
                  19637674.223    81589568.719 9     -1105.136          46.200  
  21357161.383    21357160.066   114046062.533 6      2872.987          44.900  
                  21357167.840    88702483.976 9      2234.545          44.600  
  21135812.789    21135812.059   113102068.087 8     -3028.775          50.900  
                  21135819.129    87968205.610 9     -2355.708          45.600  
  19241315.922    19241315.191   102711535.015 8        58.676          51.900  
                  19241320.617    79886670.187 9        45.634          48.900  
  22294492.367    22294491.402   119261279.145 7      3239.390          47.800  
                  22294501.055    92758214.454 9      2519.522          43.100  
 14 10 17  7 36  5.0000000  0 15G02G05G16G21G25G29G31R05R06R11R12R13 0.000000000
                                R21R22R23                   
  24895002.617                   130824070.120 4     -3250.641          38.600  
                  24895010.480   101940777.809 5                        15.600  
  23289991.953                   122389765.498 6       326.292          45.000  
  23289999.586    23289999.816    95368705.130 7                        31.800  
  24443916.102                   128453621.589 5      3490.844          41.900  
                  24443923.262   100093746.855 6                        19.000  
  22418432.102                   117809757.548 7      2519.090          48.600  
                  22418439.379    91799785.305 7                        32.900  
  22226531.031                   116801314.196 7     -3004.861          47.300  
  22226540.773                                                                  
  20253761.063                   106434176.113 7      -927.052          50.600  
  20253767.582    20253767.461    82935768.153 9                        43.600  
  21971685.156                   115461921.727 7     -1734.482          50.300  
  21971691.148    21971690.852    89970344.668 8                        37.200  
  22991687.453    22991687.191   122903710.265 7      -983.356          47.300  
                  22991697.195    95591848.079 9      -764.831          41.900  
  22673787.984    22673787.844   120992013.209 7      2527.518          45.300  
                  22673797.492    94104759.815 8      1965.839          40.600  
  22658296.266    22658294.598   121079040.916 6     -4477.222          43.000  
                  22658305.773    94172535.046 8     -3482.271          34.500  
  19639000.922    19638999.957   104907846.913 7     -1425.501          49.000  
                  19639006.793    81595105.303 9     -1108.720          46.000  
  21354472.711    21354471.746   114031707.929 6      2869.577          44.300  
                  21354479.285    88691319.289 9      2231.893          44.500  
  21138643.711    21138643.922   113117215.939 8     -3030.055          51.300  
                  21138650.988    87979987.253 9     -2356.707          46.000  
  19241262.766    19241262.504   102711250.421 8        55.814          52.600  
                  19241267.699    79886448.838 9        43.409          49.100  
  22291465.477    22291464.512   119245086.848 7      3237.859          47.700  
                  22291474.281    92745620.462 9      2518.334          43.200  
 14 10 17  7 36 10.0000000  0 15G02G05G16G21G25G29G31R05R06R11R12R13 0.000000000
                                R21R22R23                   
  24898096.047                   130840324.964 4     -3251.222          38.800  
                  24898104.262   101953443.897 5                        14.800  
  23289683.234                   122388143.505 6       323.093          44.700  
  23289691.512    23289691.391    95367441.235 7                        31.500  
  24440594.320                   128436168.354 5      3490.473          41.600  
                  24440601.773   100080146.953 6                        18.300  
  22416036.117                   117797166.876 7      2517.465          48.500  
                  22416043.453    91789974.397 7                        32.700  
  22229390.938                   116816343.133 7     -3006.457          47.200  
  22229401.148                                                                  
  20254644.141                   106438816.982 7      -928.949          50.500  
  20254650.309    20254650.598    82939384.407 9                        43.100  
  21973337.023                   115470602.240 7     -1737.207          50.500  
  21973343.074    21973343.012    89977108.694 8                        36.900  
  22992609.922    22992609.543   122908639.427 7      -987.507          46.600  
                  22992619.313    95595681.857 9      -768.057          42.200  
  22671422.906    22671421.941   120979384.791 7      2524.420          45.800  
                  22671431.477    94094937.737 8      1963.437          40.700  
  22662486.508    22662485.426   121101430.242 6     -4478.313          42.800  
                  22662496.953    94189948.935 8     -3483.128          35.700  
  19640337.922    19640336.723   104914987.802 7     -1430.005          48.600  
                  19640343.676    81600659.320 9     -1112.220          46.100  
  21351787.547    21351786.934   114017369.805 6      2866.281          44.600  
                  21351794.473    88680167.418 9      2229.329          45.000  
  21141476.164    21141474.965   113132369.565 8     -3031.199          51.100  
                  21141481.918    87991773.396 9     -2357.594          45.700  
  19241212.375    19241211.293   102710979.421 8        53.067          52.700  
                  19241216.602    79886238.052 9        41.277          49.000  
  22288438.477    22288439.039   119228901.575 7      3236.503          47.300  
                  22288448.453    92733031.915 9      2517.281          42.800  
 14 10 17  7 36 15.0000000  0 15G02G05G16G21G25G29G31R05R06R11R12R13 0.000000000
                                R21R22R23                   
  24901190.125                   130856582.963 5     -3251.863          39.200  
                  24901198.281   101966112.466 5                        16.300  
  23289377.219                   122386537.767 6       319.835          44.900  
  23289386.082    23289385.727    95366190.017 7                        32.100  
  24437273.891                   128418717.185 5      3490.029          41.700  
                  24437281.461   100066548.622 6                        19.000  
  22413642.805                   117784584.580 7      2515.776          48.900  
                  22413649.262    91780170.024 8                        33.500  
  22232252.242                   116831380.251 6     -3008.091          46.900  
  22232262.863                                                                  
  20255529.086                   106443467.682 7      -930.938          50.300  
  20255535.840    20255536.012    82943008.322 9                        43.300  
  21974991.406                   115479296.603 7     -1740.000          50.500  
  21974997.867    21974997.688    89983883.513 8                        37.000  
  22993536.055    22993535.559   122913589.650 7      -991.770          47.200  
                  22993545.563    95599532.026 9      -771.378          41.800  
  22669059.992    22669058.676   120966772.206 7      2521.242          46.300  
                  22669067.977    94085127.988 8      1960.962          40.200  
  22666676.336    22666675.840   121123825.346 6     -4479.505          42.700  
                  22666687.723    94207367.289 8     -3484.050          35.600  
  19641678.492    19641677.293   104922151.402 7     -1434.555          48.300  
                  19641684.246    81606231.003 9     -1115.760          46.000  
  21349104.695    21349104.672   114003048.369 6      2862.946          45.000  
                  21349112.441    88669028.524 9      2226.735          45.100  
  21144308.961    21144307.645   113147529.238 8     -3032.426          51.000  
                  21144314.832    88003564.241 9     -2358.549          45.700  
  19241164.164    19241163.434   102710722.574 8        50.258          52.300  
                  19241168.508    79886038.278 9        39.095          49.100  
  22285414.945    22285414.805   119212723.296 7      3235.060          47.200  
                  22285424.219    92720448.821 9      2516.153          43.000  
 14 10 17  7 36 20.0000000  0 15G02G05G16G21G25G29G31R05R06R11R12R13 0.000000000
                                R21R22R23                   
  24904284.273                   130872843.910 5     -3252.470          39.100  
                  24904292.488   101978783.296 5                        15.600  
  23289075.734                   122384948.144 6       316.590          44.700  
  23289083.953    23289083.891    95364951.349 7                        32.100  
  24433952.555                   128401267.936 5      3489.628          41.300  
                  24433960.945   100052951.807 5                        17.400  
  22411249.945                   117772010.533 7      2514.099          48.900  
                  22411256.695    91770372.074 8                        33.700  
  22235115.156                   116846425.447 7     -3009.735          47.700  
  22235125.895                                                                  
  20256415.844                   106448128.014 7      -932.890          51.200  
  20256422.832    20256422.652    82946639.748 9                        43.100  
  21976648.453                   115488004.657 7     -1742.757          50.100  
  21976655.266    21976654.910    89990668.989 8                        36.600  
  22994466.133    22994466.109   122918561.014 7      -995.991          48.100  
                  22994476.227    95603398.621 9      -774.654          42.000  
  22666699.781    22666698.699   120954175.383 7      2518.041          47.200  
                  22666707.527    94075330.479 8      1958.472          40.400  
  22670867.883    22670868.094   121146226.103 6     -4480.667          42.700  
                  22670879.738    94224790.064 8     -3484.953          34.500  
  19643024.227    19643023.262   104929337.453 7     -1439.089          48.400  
                  19643030.332    81611820.141 9     -1119.288          45.900  
  21346426.594    21346426.570   113988743.513 6      2859.598          44.900  
                  21346434.340    88657902.524 9      2224.142          45.100  
  21147142.813    21147142.082   113162694.732 8     -3033.628          51.400  
                  21147149.270    88015359.612 9     -2359.481          45.300  
  19241118.328    19241117.598   102710479.367 8        47.488          51.900  
                  19241122.672    79885849.116 9        36.939          48.800  
  22282392.469    22282391.035   119196552.135 7      3233.631          47.900  
                  22282400.805    92707871.254 9      2515.044          42.900  
 14 10 17  7 36 25.0000000  0 15G02G05G16G21G25G29G31R05R06R11R12R13 0.000000000
                                R21R22R23                   
  24907378.633                   130889108.546 4     -3253.224          38.100  
                  24907387.668   101991457.037 5                        16.300  
  23288775.859                   122383375.322 6       313.228          44.700  
  23288783.492    23288783.605    95363725.762 7                        31.700  
  24430632.703                   128383821.447 5      3489.100          41.700  
                  24430640.508   100039357.053 5                        16.300  
  22408858.641                   117759445.381 7      2512.324          48.900  
                  22408865.566    91760581.052 8                        33.600  
  22237980.055                   116861479.364 7     -3011.488          47.300  
  22237990.090                                                                  
  20257304.398                   106452798.681 7      -934.949          50.200  
  20257311.152    20257310.973    82950279.219 9                        43.300  
  21978307.984                   115496727.109 7     -1745.641          50.300  
  21978314.035    21978314.266    89997465.689 8                        36.800  
  22995400.625    22995399.777   122923553.983 7     -1000.320          47.900  
                  22995409.547    95607282.020 9      -778.019          42.000  
  22664341.547    22664340.582   120941594.964 7      2514.778          46.900  
                  22664349.414    94065545.763 8      1955.921          40.900  
  22675061.523    22675060.207   121168633.079 6     -4481.910          41.600  
                  22675072.559    94242217.668 8     -3485.921          35.600  
  19644373.359    19644372.746   104936546.539 7     -1443.694          48.200  
                  19644379.934    81617427.200 9     -1122.874          46.200  
  21343751.359    21343750.746   113974455.896 7      2856.145          46.300  
                  21343757.934    88646789.933 9      2221.446          44.800  
  21149977.984    21149976.668   113177866.707 8     -3034.903          50.800  
                  21149984.090    88027160.031 9     -2360.477          45.600  
  19241075.305    19241075.398   102710250.582 8        44.604          51.900  
                  19241080.590    79885671.164 9        34.695          48.600  
  22279370.609    22279369.645   119180388.545 7      3232.111          48.600  
                  22279379.063    92695299.578 9      2513.864          42.700  
 14 10 17  7 36 30.0000000  0 15G02G05G16G21G25G29G31R05R06R11R12R13 0.000000000
                                R21R22R23                   
  24910474.742                   130905376.162 4     -3253.816          39.000  
                  24910483.133   102004133.062 5                        16.900  
  23288479.000                   122381818.689 6       309.993          45.100  
  23288488.215    23288487.859    95362512.811 7                        31.800  
  24427312.867                   128366377.099 5      3488.650          40.800  
                  24427320.730   100025764.079 5                        17.400  
  22406469.578                   117746888.535 7      2510.669          48.600  
                  22406476.094    91750796.501 8                        33.300  
  22240845.602                   116876541.350 6     -3013.065          46.900  
  22240856.516                                                                  
  20258195.547                   106457479.035 7      -936.876          50.400  
  20258202.418    20258202.180    82953926.247 9                        43.300  
  21979970.664                   115505463.297 7     -1748.374          50.500  
  21979976.832    21979976.770    90004273.099 8                        37.400  
  22996339.648    22996338.332   122928568.050 7     -1004.510          48.300  
                  22996347.984    95611181.836 9      -781.284          42.200  
  22661986.727    22661986.113   120929030.300 7      2511.622          45.600  
                  22661994.828    94055773.259 8      1953.479          40.900  
  22679254.727    22679255.172   121191045.768 6     -4483.031          41.500  
                  22679267.051    94259649.711 8     -3486.788          36.000  
  19645726.516    19645726.609   104943778.185 7     -1448.208          48.100  
                  19645733.559    81623051.799 9     -1126.377          46.100  
  21341079.078    21341077.996   113960184.850 7      2852.841          45.800  
                  21341085.652    88635690.231 9      2218.878          44.700  
  21152814.289    21152813.441   113193044.532 8     -3036.101          50.700  
                  21152821.098    88038964.988 9     -2361.407          46.100  
  19241036.078    19241034.176   102710035.611 8        41.864          52.400  
                  19241039.602    79885503.959 9        32.564          48.800  
  22276351.461    22276350.613   119164232.095 7      3230.708          47.800  
                  22276359.914    92682733.464 9      2512.773          42.800  
 14 10 17  7 36 35.0000000  0 15G02G05G16G21G25G29G31R05R06R11R12R13 0.000000000
                                R21R22R23                   
  24913571.430                   130921646.799 4     -3254.343          38.400  
                  24913579.938   102016811.494 5                        14.800  
  23288186.656                   122380278.233 6       306.810          45.300  
  23288195.578    23288194.930    95361312.438 7                        32.400  
  24423993.531                   128348934.821 5      3488.298          41.300  
                  24424001.746   100012172.656 5                        16.300  
  22404081.961                   117734340.029 7      2509.033          49.100  
                  22404088.242    91741018.459 8                        34.400  
  22243713.594                   116891611.490 7     -3014.676          48.100  
  22243724.332                                                                  
  20259088.484                   106462169.060 7      -938.776          50.500  
  20259094.711    20259094.473    82957580.801 9                        43.200  
  21981636.648                   115514213.221 7     -1751.085          50.800  
  21981641.938    21981642.051    90011091.213 8                        37.900  
  22997280.734    22997279.535   122933603.092 7     -1008.688          47.500  
                  22997289.422    95615097.968 9      -784.530          42.200  
  22659634.359    22659633.395   120916481.581 7      2508.459          45.300  
                  22659643.047    94046013.185 8      1951.017          40.200  
  22683451.086    22683450.824   121213463.986 6     -4484.079          42.000  
                  22683462.473    94277086.065 8     -3487.611          35.800  
  19647085.477    19647084.746   104951032.293 7     -1452.634          48.400  
                  19647091.582    81628693.885 9     -1129.832          46.000  
  21338410.555    21338408.418   113945930.553 7      2849.521          45.400  
                  21338416.543    88624603.555 9      2216.291          44.800  
  21155652.258    21155650.707   113208228.152 8     -3037.214          50.400  
                  21155658.129    88050774.455 9     -2362.279          45.600  
  19240997.734    19240997.355   102709834.393 8        39.119          52.300  
                  19241002.195    79885347.462 9        30.425          49.000  
  22273331.609    22273331.348   119148082.742 7      3229.336          48.300  
                  22273340.531    92670172.859 9      2511.704          43.300  
 14 10 17  7 36 40.0000000  0 15G02G05G16G21G25G29G31R05R06R11R12R13 0.000000000
                                R21R22R23                   
  24916668.523                   130937920.739 4     -3255.118          37.900  
                  24916676.035   102029492.391 5                        13.900  
  23287896.406                   122378754.310 6       303.383          45.600  
  23287905.152    23287904.973    95360124.960 7                        31.600  
  24420675.703                   128331494.945 5      3487.733          41.300  
                  24420682.277    99998583.123 5                        15.600  
  22401695.453                   117721800.157 7      2507.208          48.800  
                  22401701.852    91731247.145 8                        33.600  
  22246583.063                   116906689.977 6     -3016.449          46.600  
  22246594.270                                                                  
  20259982.734                   106466869.084 7      -940.878          51.100  
  20259989.254    20259988.898    82961243.160 9                        43.200  
  21983304.133                   115522977.164 7     -1753.971          51.200  
  21983309.832    21983309.828    90017920.245 8                        36.800  
  22998226.594    22998226.098   122938659.491 7     -1013.063          47.500  
                  22998235.750    95619030.706 9      -787.937          41.700  
  22657285.898    22657284.465   120903948.884 7      2505.199          45.300  
                  22657294.352    94036265.561 8      1948.480          40.000  
  22687647.805    22687647.074   121235888.167 6     -4485.392          41.900  
                  22687658.719    94294527.062 8     -3488.634          36.300  
  19648447.406    19648447.027   104958309.248 7     -1457.302          48.400  
                  19648454.332    81634353.728 9     -1133.453          46.000  
  21335743.906    21335742.473   113931693.221 7      2846.031          45.900  
                  21335749.895    88613530.071 9      2213.575          44.600  
  21158489.563    21158488.480   113223417.949 8     -3038.515          51.000  
                  21158495.902    88062588.732 9     -2363.284          45.600  
  19240962.883    19240962.387   102709647.333 8        36.209          52.100  
                  19240967.344    79885201.967 9        28.160          49.200  
  22270314.125    22270312.926   119131940.743 7      3227.753          47.900  
                  22270321.992    92657617.978 9      2510.476          42.700  
 14 10 17  7 36 45.0000000  0 15G02G05G16G21G25G29G31R05R06R11R12R13 0.000000000
                                R21R22R23                   
  24919765.719                   130954197.749 4     -3255.555          37.400  
                  24919774.285   102042175.819 5                        14.800  
  23287610.297                   122377246.687 6       300.288          46.300  
  23287618.398    23287618.512    95358950.190 8                        33.100  
  24417357.281                   128314057.306 5      3487.447          41.300  
                  24417364.441    99984995.367 5                        17.400  
  22399310.102                   117709268.712 7      2505.677          49.200  
                  22399316.734    91721482.383 8                        33.500  
  22249453.820                   116921776.644 7     -3017.909          47.200  
  22249464.324                                                                  
  20260878.766                   106471578.862 7      -942.665          50.500  
  20260885.285    20260884.988    82964913.112 9                        43.000  
  21984974.500                   115531754.950 7     -1756.594          50.300  
  21984980.727    21984980.605    90024760.070 8                        37.300  
  22999176.086    22999175.473   122943736.975 7     -1017.125          47.900  
                  22999185.477    95622979.850 9      -791.093          41.500  
  22654938.938    22654938.676   120891432.027 7      2502.148          45.500  
                  22654948.445    94026530.256 8      1946.110          39.600  
  22691845.375    22691844.410   121258318.130 6     -4486.337          41.200  
                  22691856.172    94311972.534 8     -3489.359          36.200  
  19649813.750    19649812.902   104965608.741 7     -1461.650          47.700  
                  19649820.207    81640031.103 9     -1136.835          46.200  
  21333080.594    21333079.395   113917472.782 7      2842.801          45.500  
                  21333086.816    88602469.729 9      2211.070          45.200  
  21161330.523    21161328.973   113238613.694 8     -3039.568          50.200  
                  21161336.395    88074407.632 9     -2364.111          45.800  
  19240930.727    19240929.879   102709474.194 8        33.591          52.400  
                  19240934.953    79885067.302 9        26.127          48.800  
  22267297.570    22267297.074   119115805.950 7      3226.453          48.300  
                  22267306.141    92645068.708 9      2509.462          42.500  
 14 10 17  7 36 50.0000000  0 15G02G05G16G21G25G29G31R05R06R11R12R13 0.000000000
                                R21R22R23                   
  24922864.133                   130970477.826 4     -3256.244          37.800  
                  24922872.523   102054861.553 5                        15.600  
  23287326.234                   122375755.285 6       297.007          45.700  
  23287334.160    23287334.566    95357788.054 7                        32.400  
  24414039.063                   128296621.776 5      3486.946          41.600  
                  24414046.398    99971409.205 5                        17.800  
  22396928.094                   117696745.604 7      2503.977          49.300  
                  22396933.496    91711724.128 8                        34.000  
  22252326.109                   116936871.399 6     -3019.595          46.400  
  22252337.199                                                                  
  20261776.523                   106476298.336 7      -944.665          50.600  
  20261783.336    20261783.156    82968590.618 9                        43.200  
  21986647.336                   115540546.460 7     -1759.381          50.900  
  21986653.445    21986653.441    90031610.586 8                        37.500  
  23000128.914    23000128.652   122948835.596 7     -1021.379          47.300  
                  23000138.305    95626945.437 9      -794.405          41.900  
  22652596.516    22652595.551   120878931.125 7      2498.932          45.100  
                  22652605.789    94016807.367 8      1943.604          39.800  
  22696044.938    22696043.621   121280753.515 6     -4487.517          42.400  
                  22696055.266    94329422.218 8     -3490.288          35.300  
  19651184.742    19651184.129   104972930.752 7     -1466.184          47.800  
                  19651191.434    81645725.990 9     -1140.359          46.200  
  21330420.148    21330419.418   113903269.029 6      2839.442          45.000  
                  21330426.840    88591422.362 9      2208.453          44.600  
  21164170.797    21164170.066   113253815.358 8     -3040.781          50.000  
                  21164177.020    88086231.134 9     -2365.051          45.800  
  19240900.711    19240899.395   102709314.837 8        30.771          52.300  
                  19240904.352    79884943.354 9        23.936          49.100  
  22264282.969    22264282.355   119099678.145 7      3224.987          47.800  
                  22264291.188    92632524.863 9      2508.327          42.600  
 14 10 17  7 36 55.0000000  0 15G02G05G16G21G25G29G31R05R06R11R12R13 0.000000000
                                R21R22R23                   
  24925962.945                   130986761.116 4     -3256.863          38.000  
                  24925970.984   102067549.798 5                        14.800  
  23287045.406                   122374280.403 6       293.681          44.900  
  23287053.273    23287053.270    95356638.798 7                        32.400  
  24410722.938                   128279188.658 6      3486.457          42.200  
                  24410729.160    99957824.946 6                        18.300  
  22394546.141                   117684231.159 7      2502.238          48.900  
                  22394552.305    91701972.625 8                        33.200  
  22255200.344                   116951974.541 7     -3021.274          47.600  
  22255211.141                                                                  
  20262676.969                   106481027.800 7      -946.663          51.300  
  20262683.195    20262683.074    82972275.906 9                        43.200  
  21988322.672                   115549351.999 7     -1762.187          50.200  
  21988328.957    21988328.895    90038472.027 8                        37.900  
  23001089.016    23001087.465   122953955.501 7     -1025.663          47.700  
                  23001096.293    95630927.563 9      -797.734          42.300  
  22650257.094    22650255.660   120866446.340 7      2495.681          45.400  
                  22650264.961    94007096.994 8      1941.086          39.600  
  22700243.227    22700243.320   121303194.892 6     -4488.700          42.600  
                  22700254.730    94346876.594 8     -3491.204          35.100  
  19652560.328    19652559.480   104980275.495 7     -1470.724          48.700  
                  19652566.551    81651438.560 9     -1143.899          46.100  
  21327762.094    21327761.953   113889082.302 6      2835.994          45.000  
                  21327769.605    88580388.241 9      2205.778          44.900  
  21167013.188    21167011.871   113269023.030 8     -3041.975          50.700  
                  21167019.059    88098059.309 9     -2365.976          45.100  
  19240873.352    19240872.621   102709169.599 8        27.946          51.900  
                  19240877.930    79884830.388 9        21.738          48.600  
  22261268.844    22261268.465   119083557.942 7      3223.487          47.600  
                  22261277.648    92619986.934 9      2507.157          42.400  
 14 10 17  7 37  0.0000000  0 15G02G05G16G21G25G29G31R05R06R11R12R13 0.000000000
                                R21R22R23                   
  24929062.313                   131003047.452 4     -3257.596          38.300  
                  24929070.234   102080240.462 5                        13.900  
  23286768.383                   122372821.780 6       290.357          46.300  
  23286775.723    23286775.660    95355502.207 8                        33.400  
  24407405.703                   128261757.751 6      3485.940          42.100  
                  24407412.277    99944242.413 5                        17.800  
  22392166.414                   117671725.138 7      2500.465          49.000  
                  22392172.871    91692227.673 8                        33.600  
  22258075.430                   116967085.797 6     -3022.974          46.600  
  22258086.695                                                                  
  20263578.766                   106485766.956 7      -948.678          51.200  
  20263585.109    20263584.813    82975968.754 9                        43.400  
  21990000.805                   115558171.272 7     -1765.041          51.000  
  21990007.324    21990007.145    90045344.174 8                        37.000  
  23002049.641    23002049.379   122959096.498 7     -1029.969          47.600  
                  23002058.797    95634926.109 9      -801.082          42.000  
  22647921.000    22647920.035   120853977.642 7      2492.356          46.400  
                  22647928.984    93997399.160 8      1938.499          39.200  
  22704443.852    22704443.945   121325641.797 6     -4489.896          42.600  
                  22704455.004    94364335.274 8     -3492.133          35.800  
  19653938.539    19653936.988   104987642.747 7     -1475.362          48.300  
                  19653944.410    81657168.641 9     -1147.501          46.600  
  21325110.258    21325108.238   113874912.486 6      2832.546          44.900  
                  21325116.129    88569367.281 9      2203.086          44.500  
  21169856.836    21169855.051   113284236.622 8     -3043.229          50.400  
                  21169862.238    88109892.089 9     -2366.953          45.500  
  19240848.727    19240847.762   102709038.223 8        25.086          52.300  
                  19240852.836    79884728.207 9        19.508          48.900  
  22258256.891    22258257.102   119067444.609 7      3222.011          47.200  
                  22258266.047    92607454.360 9      2506.010          42.900  
 14 10 17  7 37  5.0000000  0 15G02G05G16G21G25G29G31R05R06R11R12R13 0.000000000
                                R21R22R23                   
  24932161.898                   131019336.881 4     -3258.154          37.500  
                  24932169.762   102092933.508 5                        15.600  
  23286493.789                   122371379.515 6       287.191          46.400  
  23286502.008    23286502.004    95354378.359 8                        33.400  
  24404089.313                   128244329.108 6      3485.593          42.500  
                  24404095.770    99930661.679 6                        19.300  
  22389788.000                   117659227.605 7      2498.853          49.200  
                  22389795.160    91682489.352 8                        34.000  
  22260953.125                   116982205.264 7     -3024.528          47.400  
  22260964.098                                                                  
  20264482.555                   106490515.932 7      -950.558          50.900  
  20264488.898    20264488.777    82979669.248 9                        43.900  
  21991681.945                   115567004.377 7     -1767.697          50.300  
  21991688.699    21991688.402    90052227.102 8                        37.400  
  23003016.320    23003015.590   122964258.525 7     -1034.046          47.600  
                  23003025.008    95638941.014 9      -804.259          42.400  
  22645587.883    22645586.449   120841525.071 7      2489.275          46.800  
                  22645595.043    93987713.848 8      1936.099          39.300  
  22708645.594    22708645.215   121348094.431 6     -4490.961          42.700  
                  22708656.863    94381798.383 8     -3492.963          34.900  
  19655320.828    19655320.449   104995032.529 7     -1479.760          48.400  
                  19655327.988    81662916.238 9     -1150.922          46.500  
  21322459.438    21322459.176   113860759.419 7      2829.317          45.800  
                  21322466.598    88558359.348 9      2200.581          45.100  
  21172699.781    21172699.402   113299456.137 8     -3044.333          50.900  
                  21172706.824    88121729.483 9     -2367.818          45.700  
  19240826.703    19240825.504   102708920.724 8        22.427          52.100  
                  19240830.695    79884636.822 9        17.439          48.900  
  22255245.047    22255245.141   119051338.655 7      3220.635          48.100  
                  22255254.320    92594927.515 9      2504.941          42.800  
 14 10 17  7 37 10.0000000  0 15G02G05G16G21G25G29G31R05R06R11R12R13 0.000000000
                                R21R22R23                   
  24935263.547                   131035629.383 4     -3258.728          37.100  
                  24935270.414   102105628.965 5                        14.800  
  23286222.117                   122369953.664 6       283.881          46.000  
  23286230.395    23286230.273    95353267.302 8                        33.100  
  24400772.828                   128226902.776 6      3485.119          42.100  
                  24400779.461    99917082.660 6                        18.300  
  22387411.648                   117646738.620 7      2497.113          48.700  
                  22387418.340    91672757.686 8                        33.700  
  22263831.156                   116997332.915 6     -3026.166          46.900  
  22263842.422                                                                  
  20265387.742                   106495274.731 7      -952.531          50.700  
  20265394.262    20265394.141    82983377.404 9                        43.400  
  21993365.906                   115575851.322 7     -1770.480          51.000  
  21993371.840    21993371.836    90059120.815 8                        38.000  
  23003986.156    23003985.191   122969441.852 7     -1038.348          48.800  
                  23003994.141    95642972.474 9      -807.600          41.900  
  22643258.016    22643256.934   120829088.310 7      2486.104          47.300  
                  22643264.473    93978040.845 8      1933.635          38.700  
  22712846.664    22712847.344   121370552.744 6     -4492.100          42.000  
                  22712859.340    94399265.905 8     -3493.839          35.300  
  19656709.820    19656709.441   105002445.015 7     -1484.297          47.700  
                  19656716.746    81668681.497 9     -1154.451          46.400  
  21319813.414    21319811.043   113846623.309 7      2825.870          45.800  
                  21319818.582    88547364.593 9      2197.905          45.100  
  21175545.258    21175544.293   113314681.629 8     -3045.556          50.300  
                  21175552.066    88133571.514 9     -2368.761          45.700  
  19240807.609    19240806.645   102708817.192 8        19.588          52.200  
                  19240811.836    79884556.291 9        15.239          48.800  
  22252236.031    22252235.535   119035239.922 7      3219.192          48.000  
                  22252244.953    92582406.292 9      2503.814          42.400  
 14 10 17  7 37 15.0000000  0 15G02G05G16G21G25G29G31R05R06R11R12R13 0.000000000
                                R21R22R23                   
  24938364.922                   131051924.998 4     -3259.346          37.600  
                  24938371.262   102118326.780 5                        16.300  
  23285954.336                   122368544.154 6       280.632          46.400  
  23285962.086    23285961.672    95352168.987 8                        33.500  
  24397456.969                   128209478.725 6      3484.665          42.200  
                  24397464.480    99903505.479 5                        17.800  
  22385036.367                   117634258.134 7      2495.435          48.300  
                  22385043.586    91663032.647 8                        33.600  
  22266711.586                   117012468.749 7     -3027.783          47.100  
  22266722.207                                                                  
  20266295.000                   106500043.361 7      -954.492          51.500  
  20266302.457    20266302.219    82987093.214 9                        43.400  
  21995051.758                   115584712.077 7     -1773.231          51.100  
  21995058.043    21995057.688    90066025.289 8                        37.700  
  23004959.680    23004959.301   122974646.279 7     -1042.529          48.700  
                  23004968.016    95647020.357 9      -810.855          41.900  
  22640931.891    22640929.988   120816667.731 7      2482.833          47.300  
                  22640937.176    93968380.407 8      1931.089          38.900  
  22717052.750    22717052.371   121393016.668 6     -4493.204          42.100  
                  22717063.902    94416737.803 8     -3494.708          35.700  
  19658101.453    19658100.605   105009880.158 7     -1488.775          48.100  
                  19658108.027    81674464.370 9     -1157.929          46.200  
  21317168.758    21317167.559   113832504.367 7      2822.440          46.200  
                  21317175.332    88536383.196 9      2195.229          44.600  
  21178391.047    21178390.082   113329913.031 8     -3046.734          50.100  
                  21178397.738    88145418.146 9     -2369.677          45.900  
  19240790.313    19240789.348   102708727.643 8        16.843          52.300  
                  19240794.305    79884486.637 9        13.100          48.900  
  22249228.422    22249227.809   119019148.446 7      3217.738          48.100  
                  22249236.992    92569890.704 9      2502.681          42.500  
 14 10 17  7 37 20.0000000  0 15G02G05G16G21G25G29G31R05R06R11R12R13 0.000000000
                                R21R22R23                   
  24941465.695                   131068223.629 3     -3259.994          36.800  
                  24941473.207   102131027.052 5                        13.900  
  23285689.305                   122367150.969 6       277.282          46.300  
  23285697.641    23285697.285    95351083.379 8                        33.100  
  24394141.430                   128192056.938 5      3484.121          41.600  
                  24394148.766    99889930.064 6                        19.600  
  22382662.656                   117621786.126 7      2493.665          48.800  
                  22382669.992    91653314.201 8                        33.800  
  22269593.508                   117027612.755 6     -3029.501          46.800  
  22269604.715                                                                  
  20267204.086                   106504821.772 7      -956.521          50.500  
  20267210.605    20267210.543    82990816.642 9                        43.000  
  21996740.070                   115593586.583 7     -1776.058          50.800  
  21996746.707    21996746.586    90072940.479 8                        37.400  
  23005937.688    23005936.371   122979871.758 8     -1046.840          49.100  
                  23005944.965    95651084.600 9      -814.207          41.800  
  22638605.609    22638604.645   120804263.368 7      2479.558          47.300  
                  22638612.418    93958732.592 8      1928.544          39.400  
  22721257.633    22721257.137   121415486.186 6     -4494.381          42.400  
                  22721268.902    94434214.044 8     -3495.621          36.200  
  19659497.742    19659497.129   105017337.787 7     -1493.387          48.200  
                  19659503.848    81680264.739 9     -1161.521          46.200  
  21314528.602    21314526.465   113818402.306 7      2819.008          46.400  
                  21314534.004    88525414.931 9      2192.556          45.000  
  21181238.250    21181237.988   113345150.279 8     -3047.946          49.700  
                  21181245.410    88157269.327 9     -2370.622          45.100  
  19240776.922    19240775.488   102708651.840 8        13.994          51.800  
                  19240780.680    79884427.674 9        10.885          48.200  
  22246221.820    22246221.441   119003064.108 7      3216.270          48.400  
                  22246230.391    92557380.668 9      2501.541          42.300  
 14 10 17  7 37 25.0000000  0 15G02G05G16G21G25G29G31R05R06R11R12R13 0.000000000
                                R21R22R23                   
  24944568.266                   131084525.308 3     -3260.585          36.900  
                  24944575.426   102143729.583 5                        14.800  
  23285427.336                   122365774.135 6       274.000          46.000  
  23285435.672    23285435.082    95350010.521 8                        33.700  
  24390826.570                   128174637.482 5      3483.685          41.500  
                  24390833.555    99876356.430 6                        18.300  
  22380291.305                   117609322.640 7      2491.975          49.100  
                  22380298.406    91643602.404 8                        33.400  
  22272477.211                   117042764.881 7     -3031.107          47.300  
  22272488.125                                                                  
  20268115.797                   106509609.950 7      -958.463          50.800  
  20268122.082    20268122.020    82994547.684 9                        43.300  
  21998431.664                   115602474.859 7     -1778.791          50.000  
  21998437.891    21998437.887    90079866.391 8                        37.100  
  23006918.727    23006919.055   122985118.335 8     -1051.039          49.200  
                  23006927.531    95655165.266 9      -817.474          41.900  
  22636284.453    22636282.668   120791874.969 7      2476.357          47.600  
                  22636291.145    93949097.209 8      1926.048          39.400  
  22725462.961    22725463.641   121437961.259 6     -4495.514          43.200  
                  22725474.816    94451694.614 8     -3496.505          35.800  
  19660898.078    19660896.879   105024817.897 7     -1497.882          48.000  
                  19660904.066    81686082.594 9     -1165.020          46.400  
  21311890.930    21311889.027   113804317.289 7      2815.608          46.400  
                  21311896.449    88514459.917 9      2189.913          44.200  
  21184086.758    21184086.617   113360393.447 8     -3049.150          49.500  
                  21184094.270    88169125.109 9     -2371.554          45.600  
  19240765.023    19240764.176   102708590.034 8        11.214          52.400  
                  19240769.250    79884379.601 9         8.722          48.500  
  22243216.867    22243215.316   118986987.015 7      3214.801          47.500  
                  22243224.262    92544876.261 9      2500.397          42.400  
 14 10 17  7 37 30.0000000  0 15G02G05G16G21G25G29G31R05R06R11R12R13 0.000000000
                                R21R22R23                   
  24947671.672                   131100830.102 4     -3261.104          37.500  
                                                                                
  23285168.117                   122364413.669 6       270.874          45.800  
  23285177.215    23285176.332    95348950.412 7                        32.200  
  24387511.945                   128157220.320 5      3483.371          41.200  
                  24387518.637    99862784.638 5                        17.800  
  22377921.289                   117596867.659 7      2490.412          48.700  
                  22377928.449    91633897.227 8                        33.600  
  22275361.563                   117057925.170 6     -3032.593          46.300  
  22275373.004                                                                  
  20269028.359                   106514407.909 7      -960.276          50.800  
  20269035.172    20269034.992    82998286.352 9                        43.400  
  22000125.375                   115611376.894 7     -1781.400          49.800  
  22000132.246    22000132.359    90086803.030 8                        36.900  
  23007904.820    23007904.090   122990386.132 7     -1055.157          48.400  
                  23007912.805    95659262.435 9      -820.673          42.100  
  22633964.398    22633964.137   120779502.789 7      2473.232          46.300  
                  22633973.555    93939474.423 8      1923.618          39.500  
  22729670.445    22729670.422   121460441.907 6     -4496.465          43.800  
                  22729681.242    94469179.546 8     -3497.248          35.300  
  19662302.289    19662301.441   105032320.620 7     -1502.259          47.800  
                  19662308.746    81691918.035 9     -1168.419          46.100  
  21309255.961    21309253.941   113790249.113 7      2812.397          46.000  
                  21309261.246    88503518.004 9      2187.419          44.800  
  21186936.758    21186935.793   113375642.533 8     -3050.183          50.000  
                  21186943.449    88180985.491 9     -2372.361          45.000  
  19240756.266    19240754.832   102708542.123 8         8.566          51.900  
                  19240759.789    79884342.330 9         6.666          48.800  
  22240212.250    22240212.109   118970917.188 7      3213.491          48.500  
                  22240220.938    92532377.512 9      2499.380          42.100  
 14 10 17  7 37 35.0000000  0 15G02G05G16G21G25G29G31R05R06R11R12R13 0.000000000
                                R21R22R23                   
  24950774.719                   131117137.958 3     -3261.781          36.600  
                                                                                
  23284912.672                   122363069.620 6       267.518          45.900  
  23284920.715    23284920.301    95347903.099 8                        33.300  
  24384198.258                   128139805.486 5      3482.803          41.400  
                  24384205.418    99849214.613 5                        17.400  
  22375551.781                   117584421.307 7      2488.603          48.200  
                  22375559.176    91624198.786 7                        33.000  
  22278248.766                   117073093.731 6     -3034.351          46.400  
  22278259.914                                                                  
  20269943.141                   106519215.701 7      -962.325          50.900  
  20269949.367    20269949.422    83002032.670 9                        43.400  
  22001822.477                   115620292.816 7     -1784.271          50.900  
  22001828.820    22001829.402    90093750.491 8                        38.100  
  23008894.156    23008892.488   122995675.063 8     -1059.450          49.200  
                  23008901.434    95663376.037 9      -824.013          41.500  
  22631649.711    22631647.457   120767146.789 7      2469.936          46.600  
                  22631658.047    93929864.249 8      1921.052          40.100  
  22733878.477    22733878.688   121482928.145 6     -4497.698          43.400  
                  22733889.980    94486668.808 8     -3498.192          35.800  
  19663711.172    19663710.676   105039845.898 7     -1506.883          48.000  
                  19663717.863    81697771.016 9     -1172.016          46.000  
  21306624.336    21306623.840   113776198.175 7      2808.847          46.300  
                  21306630.910    88492589.501 9      2184.657          44.600  
  21189788.031    21189787.301   113390897.495 8     -3051.467          50.000  
                  21189794.957    88192850.452 9     -2373.358          45.500  
  19240749.289    19240747.973   102708508.184 8         5.679          52.400  
                  19240752.930    79884315.933 9         4.416          48.500  
  22237209.445    22237208.715   118954854.734 7      3211.931          47.900  
                  22237217.781    92519884.497 9      2498.167          43.000  
 14 10 17  7 37 40.0000000  0 15G02G05G16G21G25G29G31R05R06R11R12R13 0.000000000
                                R21R22R23                   
  24953878.648                   131133448.636 4     -3262.500          37.300  
                                                                                
  23284659.984                   122361741.726 6       264.146          46.000  
  23284668.320    23284667.848    95346868.373 8                        33.200  
  24380885.289                   128122392.794 6      3482.231          42.300  
                  24380892.039    99835646.275 5                        16.900  
  22373185.773                   117571983.248 7      2486.794          47.900  
                  22373192.289    91614506.807 8                        34.000  
  22281135.836                   117088270.181 6     -3036.072          45.600  
  22281147.805                                                                  
  20270859.813                   106524033.063 7      -964.379          50.200  
  20270866.918    20270866.855    83005786.452 9                        43.200  
  22003522.109                   115629222.261 7     -1787.097          51.400  
  22003527.926    22003528.273    90100708.485 8                        37.800  
  23009886.508    23009886.012   123000984.835 7     -1063.779          48.900  
                  23009894.961    95667505.857 9      -827.385          41.700  
  22629337.492    22629336.059   120754806.781 7      2466.581          46.600  
                  22629345.477    93920266.498 8      1918.446          40.100  
  22738087.008    22738086.512   121505419.744 6     -4498.876          42.100  
                  22738098.277    94504162.233 8     -3499.115          35.300  
  19665124.594    19665123.277   105047393.465 7     -1511.430          47.900  
                  19665130.582    81703641.336 9     -1175.552          45.700  
  21303995.906    21303994.824   113762163.939 7      2805.347          46.300  
                  21304002.129    88481673.973 9      2181.942          45.000  
  21192639.266    21192638.770   113406158.097 8     -3052.734          49.600  
                  21192646.777    88204719.807 9     -2374.352          45.000  
  19240745.805    19240744.723   102708487.874 8         2.824          52.300  
                  19240749.563    79884300.132 9         2.196          48.200  
  22234206.633    22234207.078   118938799.299 7      3210.380          47.900  
                  22234216.375    92507396.944 9      2496.961          42.500  
 14 10 17  7 37 45.0000000  0 15G02G05G16G21G25G29G31R05R06R11R12R13 0.000000000
                                R21R22R23                   
  24956983.195                   131149762.717 4     -3263.061          37.100  
                                                                                
  23284409.570                   122360430.562 6       260.911          46.600  
  23284418.961    23284418.195    95345846.683 7                        32.400  
  24377572.195                   128104982.738 5      3481.819          42.000  
                  24377578.945    99822079.982 5                        17.400  
  22370820.398                   117559554.099 7      2485.142          48.300  
                  22370826.973    91604821.762 8                        33.400  
  22284026.117                   117103455.127 6     -3037.649          46.400  
  22284037.383                                                                  
  20271779.195                   106528860.584 7      -966.288          50.500  
  20271785.773    20271785.887    83009548.149 9                        43.400  
  22005223.938                   115638165.809 7     -1789.818          50.700  
  22005230.398    22005230.453    90107677.474 8                        37.900  
  23010883.875    23010883.852   123006316.110 7     -1067.920          48.400  
                  23010892.563    95671652.396 9      -830.603          41.900  
  22627027.672    22627026.004   120742483.386 7      2463.367          46.000  
                  22627035.066    93910681.665 8      1915.948          39.500  
  22742296.789    22742296.293   121527917.231 6     -4499.944          42.600  
                  22742307.941    94521660.233 8     -3499.943          35.600  
  19666541.180    19666541.273   105054964.057 7     -1515.953          47.900  
                  19666548.340    81709529.573 9     -1179.078          46.500  
  21301371.641    21301370.676   113748147.320 7      2801.941          46.300  
                  21301377.863    88470772.163 9      2179.291          44.700  
  21195492.625    21195490.723   113421425.041 8     -3053.874          49.900  
                  21195498.496    88216594.074 9     -2375.229          45.400  
  19240744.945    19240743.980   102708481.863 8         0.115          51.900  
                  19240748.703    79884295.456 9         0.091          48.200  
  22231207.664    22231206.816   118922751.487 7      3208.974          48.100  
                  22231215.883    92494915.321 9      2495.870          42.300  
 14 10 17  7 37 50.0000000  0 15G02G05G16G21G25G29G31R05R06R11R12R13 0.000000000
                                R21R22R23                   
  24960088.320                   131166079.767 4     -3263.661          37.200  
                                                                                
  23284163.625                   122359135.728 6       257.617          45.600  
  23284172.078    23284171.781    95344837.715 7                        32.700  
  24374260.492                   128087575.017 6      3481.319          43.000  
                  24374266.188    99808515.503 5                        17.400  
  22368456.891                   117547133.466 7      2483.417          48.200  
                  22368463.816    91595143.349 8                        33.400  
  22286917.109                   117118648.212 6     -3039.317          45.800  
  22286928.668                                                                  
  20272699.211                   106533697.852 7      -968.284          50.300  
  20272706.316    20272706.195    83013317.446 9                        43.000  
  22006928.656                   115647123.059 7     -1792.577          50.900  
  22006935.176    22006935.172    90114657.137 8                        37.900  
  23011884.711    23011883.277   123011668.384 7     -1072.201          48.500  
                  23011892.457    95675815.282 9      -833.937          41.800  
  22624721.461    22624720.262   120730176.076 7      2460.130          46.600  
                  22624729.328    93901109.346 8      1913.422          39.600  
  22746508.859    22746508.363   121550420.189 6     -4501.089          42.300  
                  22746520.129    94539162.497 8     -3500.840          36.100  
  19667962.859    19667961.543   105062557.148 7     -1520.481          48.900  
                  19667968.965    81715435.301 9     -1182.591          45.700  
  21298749.836    21298749.105   113734147.568 7      2798.580          46.300  
                  21298756.410    88459883.467 9      2176.677          45.400  
  21198346.664    21198345.934   113436697.730 8     -3055.060          49.900  
                  21198353.473    88228472.827 9     -2376.153          45.600  
  19240746.180    19240744.980   102708489.662 8        -2.702          52.400  
                  19240749.820    79884301.518 9        -2.103          48.500  
  22228209.219    22228209.078   118906711.002 7      3207.467          47.800  
                  22228218.258    92482439.391 9      2494.695          42.200  
 14 10 17  7 37 55.0000000  0 15G02G05G16G21G25G29G31R05R06R11R12R13 0.000000000
                                R21R22R23                   
  24963192.852                   131182399.491 4     -3264.220          37.900  
                                                                                
  23283919.500                   122357856.994 6       254.405          45.600  
  23283928.363    23283928.359    95343841.296 7                        31.500  
  24370947.859                   128070169.404 6      3480.909          42.600  
                  24370954.258    99794952.662 5                        17.800  
  22366094.844                   117534721.143 7      2481.749          47.900  
                  22366101.828    91585471.411 7                        33.000  
  22289810.211                   117133849.090 6     -3040.862          46.600  
  22289821.242                                                                  
  20273621.656                   106538544.615 7      -970.171          49.900  
  20273628.586    20273628.465    83017094.141 9                        42.900  
  22008636.258                   115656093.754 7     -1795.269          51.200  
  22008642.016    22008642.070    90121647.276 8                        38.400  
  23012890.336    23012889.254   123017041.545 7     -1076.329          48.800  
                  23012898.203    95679994.403 9      -837.143          42.100  
  22622417.539    22622416.340   120717884.917 7      2456.903          46.300  
                  22622425.051    93891549.592 8      1910.925          39.600  
  22750720.930    22750721.141   121572928.373 6     -4502.146          42.200  
                  22750733.254    94556668.816 8     -3501.662          36.200  
  19669388.461    19669387.145   105070172.434 7     -1524.936          47.900  
                  19669394.918    81721358.294 9     -1186.061          46.500  
  21296132.281    21296130.027   113720164.684 7      2795.158          46.400  
                  21296137.449    88449007.895 9      2174.008          45.500  
  21201201.445    21201200.598   113451975.998 8     -3056.163          49.600  
                  21201208.605    88240355.911 9     -2377.011          46.200  
  19240750.094    19240749.598   102708511.025 8        -5.435          52.100  
                  19240754.555    79884318.131 9        -4.226          48.300  
  22225211.836    22225211.340   118890677.465 7      3206.078          48.600  
                  22225220.875    92469968.873 9      2493.618          42.400  
 14 10 17  7 38  0.0000000  0 15G02G05G16G21G25G29G31R05R06R11R12R13 0.000000000
                                R21R22R23                   
  24966300.617                   131198722.413 4     -3264.808          37.100  
                                                                                
  23283679.820                   122356594.832 6       251.130          45.200  
  23283688.801    23283688.270    95342857.794 7                        32.600  
  24367636.969                   128052766.392 6      3480.389          43.000  
                  24367642.195    99781391.854 5                        16.300  
  22363734.945                   117522317.567 7      2480.012          48.500  
                  22363741.637    91575806.292 8                        33.600  
  22292704.172                   117149058.315 6     -3042.496          45.400  
  22292715.496                                                                  
  20274545.680                   106543401.378 7      -972.143          49.300  
  20274552.258    20274552.020    83020878.627 9                        42.600  
  22010345.320                   115665078.329 7     -1798.027          50.700  
  22010351.840    22010351.602    90128648.230 8                        37.700  
  23013899.516    23013899.137   123022435.961 7     -1080.553          49.000  
                  23013907.852    95684190.057 9      -840.425          41.900  
  22620117.563    22620116.480   120705610.147 7      2453.625          47.200  
                  22620125.309    93882002.575 8      1908.366          39.100  
  22754932.984    22754933.430   121595442.261 6     -4503.238          42.400  
                  22754945.543    94574179.571 8     -3502.516          35.100  
  19670818.578    19670817.848   105077810.389 7     -1529.420          48.400  
                  19670825.387    81727298.914 9     -1189.544          46.000  
  21293516.313    21293514.410   113706199.111 7      2791.728          47.100  
                  21293521.480    88438145.789 9      2171.341          45.300  
  21204057.531    21204056.918   113467260.291 8     -3057.376          49.400  
                  21204064.809    88252243.678 9     -2377.958          45.600  
  19240756.711    19240755.277   102708546.550 8        -8.206          51.900  
                  19240760.469    79884345.763 9        -6.381          49.300  
  22222216.664    22222214.762   118874651.390 7      3204.638          48.600  
                  22222224.176    92457504.164 9      2492.494          42.800  
 14 10 17  7 38  5.0000000  0 15G02G05G16G21G25G29G31R05R06R11R12R13 0.000000000
                                R21R22R23                   
  24969406.742                   131215048.280 3     -3265.452          36.200  
                                                                                
  23283442.727                   122355349.027 6       247.818          46.100  
  23283452.879    23283452.230    95341887.029 7                        32.100  
  24364324.664                   128035365.731 6      3479.909          42.900  
                  24364330.770    99767832.908 5                        17.800  
  22361375.531                   117509922.548 7      2478.281          48.200  
                  22361383.277    91566147.852 7                        33.000  
  22295598.922                   117164275.614 6     -3044.148          46.800  
  22295611.359                                                                  
  20275471.625                   106548267.863 7      -974.112          50.300  
  20275478.555    20275478.258    83024670.689 9                        42.600  
  22012057.648                   115674076.643 7     -1800.803          50.600  
  22012064.109    22012063.988    90135659.891 8                        38.400  
  23014913.570    23014911.316   123027851.376 8     -1084.814          49.400  
                  23014920.145    95688402.029 9      -843.737          41.200  
  22617821.094    22617818.840   120693351.632 7      2450.385          46.800  
                  22617827.316    93872468.194 8      1905.849          38.600  
  22759148.172    22759148.031   121617961.519 6     -4504.343          42.800  
                  22759159.793    94591694.519 8     -3503.375          35.600  
  19672252.336    19672251.254   105085470.776 7     -1533.910          48.100  
                  19672258.910    81733256.983 9     -1193.040          46.400  
  21290903.023    21290902.883   113692250.726 7      2788.251          46.300  
                  21290910.184    88427297.043 9      2168.633          45.100  
  21206915.680    21206914.129   113482550.379 8     -3058.550          49.100  
                  21206922.137    88264135.947 9     -2378.869          45.700  
  19240765.586    19240765.090   102708595.879 8       -11.027          51.300  
                  19240770.520    79884384.124 9        -8.575          48.700  
  22219221.938    22219219.684   118858632.563 7      3203.121          47.900  
                  22219229.566    92445045.073 9      2491.319          43.000  
 14 10 17  7 38 10.0000000  0 15G02G05G16G21G25G29G31R05R06R11R12R13 0.000000000
                                R21R22R23                   
  24972513.914                   131231377.366 3     -3266.006          36.500  
                                                                                
  23283209.008                   122354119.824 6       244.565          45.800  
  23283217.754    23283217.340    95340929.210 7                        32.400  
  24361014.523                   128017967.639 6      3479.472          43.200  
                  24361020.043    99754275.934 6                        18.300  
  22359018.734                   117497536.307 7      2476.596          48.100  
                  22359025.895    91556496.248 8                        33.800  
  22298496.578                   117179501.206 6     -3045.732          46.400  
  22298508.488                                                                  
  20276399.750                   106553144.299 7      -976.033          50.700  
  20276406.152    20276406.207    83028470.507 9                        42.300  
  22013772.500                   115683088.865 7     -1803.507          50.700  
  22013778.844    22013778.840    90142682.386 8                        38.000  
  23015930.328    23015928.309   123033288.084 8     -1088.991          49.400  
                  23015937.137    95692630.575 9      -846.993          41.300  
  22615527.523    22615524.918   120681109.572 7      2447.133          47.600  
                  22615532.457    93862946.617 8      1903.321          38.600  
  22763362.820    22763362.680   121640486.486 6     -4505.389          42.800  
                  22763374.090    94609213.899 8     -3504.180          35.900  
  19673691.078    19673690.230   105093153.961 7     -1538.385          47.800  
                  19673697.301    81739232.785 9     -1196.522          46.100  
  21288294.781    21288294.285   113678319.662 7      2784.895          46.600  
                  21288301.473    88416461.769 9      2166.032          44.600  
  21209773.758    21209771.738   113497846.472 8     -3059.665          49.100  
                  21209779.746    88276032.888 9     -2379.734          44.900  
  19240777.523    19240777.262   102708659.211 8       -13.727          51.400  
                  19240782.809    79884433.390 9       -10.684          48.100  
  22216227.586    22216227.207   118842621.234 7      3201.729          47.400  
                  22216237.211    92432591.826 9      2490.230          43.000  
 14 10 17  7 38 15.0000000  0 15G02G05G16G21G25G29G31R05R06R11R12R13 0.000000000
                                R21R22R23                   
  24975622.938                   131247709.135 3     -3266.691          35.900  
                                                                                
  23282978.211                   122352906.761 6       241.221          45.500  
  23282986.898    23282986.426    95339983.964 7                        32.100  
  24357703.477                   128000571.725 6      3478.906          42.500  
                  24357709.406    99740720.621 5                        17.400  
  22356663.164                   117485158.366 7      2474.823          48.200  
                  22356670.617    91546851.126 8                        33.600  
  22301396.008                   117194734.677 6     -3047.423          46.200  
  22301408.035                                                                  
  20277329.273                   106558030.248 7      -978.050          50.800  
  20277336.496    20277336.551    83032277.737 9                        43.100  
  22015489.125                   115692114.532 7     -1806.299          50.200  
  22015496.641    22015496.637    90149715.362 8                        37.600  
  23016952.047    23016949.324   123038745.557 8     -1093.252          49.300  
                  23016958.152    95696875.273 9      -850.307          41.400  
  22613234.891    22613233.926   120668883.623 7      2443.814          46.800  
                  22613242.520    93853437.552 8      1900.737          38.400  
  22767579.539    22767579.633   121663016.614 6     -4506.511          42.900  
                  22767591.160    94626737.289 8     -3505.053          35.900  
  19675134.000    19675132.918   105100859.227 7     -1542.899          48.200  
                  19675139.754    81745225.758 9     -1200.030          45.900  
  21285689.297    21285688.215   113664405.389 7      2781.424          46.700  
                  21285695.520    88405639.567 9      2163.328          44.900  
  21212632.656    21212632.395   113513148.067 8     -3060.855          49.500  
                  21212639.934    88287934.125 9     -2380.666          45.500  
  19240792.250    19240791.168   102708736.121 8       -16.568          51.600  
                  19240796.711    79884493.200 9       -12.884          48.200  
  22213235.914    22213235.301   118826616.834 7      3200.211          47.300  
                  22213245.305    92420143.967 9      2489.052          42.700  
 14 10 17  7 38 20.0000000  0 15G02G05G16G21G25G29G31R05R06R11R12R13 0.000000000
                                R21R22R23                   
  24978730.648                   131264043.907 3     -3267.213          36.000  
                                                                                
  23282750.492                   122351710.114 6       238.025          45.200  
  23282759.531    23282759.410    95339051.497 7                        31.900  
  24354393.406                   127983178.180 5      3478.517          42.000  
                  24354399.746    99727167.205 5                        17.800  
  22354310.141                   117472789.090 7      2473.156          48.300  
                  22354316.891    91537212.725 8                        33.800  
  22304295.758                   117209976.238 6     -3048.979          46.800  
  22304308.020                                                                  
  20278261.203                   106562925.973 7      -979.928          50.600  
  20278268.074    20278268.070    83036092.582 9                        43.000  
  22017209.742                   115701153.938 7     -1808.970          49.800  
  22017216.672    22017216.902    90156759.042 8                        37.700  
  23017976.219    23017974.902   123044224.167 8     -1097.395          49.300  
                  23017983.730    95701136.399 9      -853.526          41.300  
  22610946.766    22610944.746   120656673.881 7      2440.632          47.200  
                  22610953.809    93843941.117 8      1898.261          38.600  
  22771795.711    22771796.391   121685552.101 6     -4507.518          42.600  
                  22771808.504    94644264.843 8     -3505.838          36.200  
  19676580.555    19676579.004   105108587.155 7     -1547.398          48.100  
                  19676586.074    81751236.359 9     -1203.526          46.100  
  21283087.188    21283085.051   113650508.332 7      2778.048          46.600  
                  21283092.473    88394830.746 9      2160.705          44.800  
  21215493.484    21215492.285   113528455.517 8     -3061.973          49.600  
                  21215499.941    88299839.906 9     -2381.538          45.000  
  19240809.383    19240807.480   102708827.051 8       -19.285          51.800  
                  19240813.023    79884563.920 9       -14.999          48.600  
  22210245.336    22210245.195   118810619.973 7      3198.796          47.100  
                  22210255.430    92407701.964 9      2487.953          42.700  
 14 10 17  7 38 25.0000000  0 15G02G05G16G21G25G29G31R05R06R11R12R13 0.000000000
                                R21R22R23                   
  24981840.102                   131280381.664 3     -3267.818          36.200  
                                                                                
  23282524.727                   122350529.933 6       234.685          45.000  
  23282534.938    23282534.699    95338131.883 7                        31.300  
  24351083.875                   127965787.164 6      3477.973          42.300  
                  24351090.449    99713615.783 5                        17.400  
  22351957.273                   117460428.422 7      2471.436          48.900  
                  22351964.609    91527581.051 8                        33.800  
  22307198.523                   117225225.916 6     -3050.618          46.500  
  22307209.789                                                                  
  20279194.102                   106567831.507 7      -981.916          50.200  
  20279201.734    20279201.555    83039915.072 9                        43.100  
  22018932.102                   115710207.059 7     -1811.736          50.000  
  22018939.383    22018939.555    90163813.418 8                        37.800  
  23019003.719    23019003.813   123049723.807 8     -1101.615          49.300  
                  23019012.758    95705413.890 9      -856.806          41.600  
  22608660.500    22608659.770   120644480.692 7      2437.311          46.700  
                  22608668.836    93834457.542 8      1895.681          38.000  
  22776016.078    22776015.465   121708093.012 6     -4508.658          42.600  
                  22776027.113    94661796.633 8     -3506.728          35.000  
  19678030.227    19678029.262   105116337.515 7     -1551.951          48.000  
                  19678036.566    81757264.416 9     -1207.071          46.000  
  21280487.297    21280486.566   113636628.540 7      2774.533          47.300  
                  21280493.871    88384035.357 9      2157.972          44.300  
  21218355.117    21218354.387   113543768.794 8     -3063.148          49.900  
                  21218362.043    88311750.222 9     -2382.444          45.700  
  19240829.234    19240827.684   102708931.759 8       -22.071          51.700  
                  19240833.695    79884645.363 9       -17.166          48.800  
  22207256.078    22207256.055   118794630.312 7      3197.328          48.000  
                  22207266.406    92395265.577 9      2486.807          42.900  
 14 10 17  7 38 30.0000000  0 15G02G05G16G21G25G29G31R05R06R11R12R13 0.000000000
                                R21R22R23                   
  24984949.906                   131296722.307 3     -3268.285          35.300  
                                                                                
  23282304.242                   122349366.109 6       231.535          45.200  
  23282312.988    23282312.926    95337225.005 7                        31.800  
  24347775.344                   127948398.516 6      3477.611          42.200  
                  24347781.273    99700066.137 5                        16.300  
  22349607.172                   117448076.342 7      2469.821          48.200  
                  22349613.688    91517956.067 8                        33.700  
  22310102.117                   117240483.659 7     -3052.096          47.400  
  22310113.500                                                                  
  20280129.883                   106572746.773 7      -983.744          50.700  
  20280137.574    20280137.336    83043745.143 9                        43.000  
  22020657.594                   115719273.825 7     -1814.332          50.000  
  22020665.051    22020664.813    90170878.420 8                        37.300  
  23020036.742    23020036.719   123055244.462 7     -1105.731          48.400  
                  23020045.664    95709707.730 9      -860.010          41.400  
  22606378.906    22606377.707   120632303.644 7      2434.172          46.400  
                  22606387.125    93824986.540 8      1893.238          38.100  
  22780234.523    22780234.383   121730639.296 6     -4509.583          41.600  
                  22780245.438    94679332.595 8     -3507.451          35.600  
  19679486.258    19679484.473   105124110.315 7     -1556.286          48.100  
                  19679491.895    81763309.916 9     -1210.441          46.300  
  21277891.766    21277890.332   113622766.068 7      2771.216          46.800  
                  21277897.871    88373253.436 9      2155.389          45.100  
  21221218.086    21221217.945   113559087.865 7     -3064.185          48.800  
                  21221225.480    88323665.044 9     -2383.255          45.100  
  19240850.445    19240849.012   102709050.341 8       -24.741          51.300  
                  19240854.906    79884737.593 9       -19.243          48.900  
  22204267.805    22204268.367   118778647.993 7      3195.973          47.200  
                  22204278.133    92382834.879 9      2485.759          43.200  
 14 10 17  7 38 35.0000000  0 15G02G05G16G21G25G29G31R05R06R11R12R13 0.000000000
                                R21R22R23                   
  24988060.063                   131313065.886 3     -3268.862          35.800  
                                                                                
  23282085.875                   122348218.665 6       228.265          44.900  
  23282094.797    23282094.734    95336330.889 7                        32.000  
  24344466.727                   127931012.262 5      3477.104          41.700  
                  24344472.949    99686518.393 5                        17.800  
  22347257.750                   117435732.819 7      2468.109          48.800  
                  22347264.734    91508337.746 8                        33.800  
  22313006.203                   117255749.444 6     -3053.709          46.700  
  22313018.172                                                                  
  20281067.125                   106577671.722 7      -985.687          50.700  
  20281074.055    20281073.875    83047582.759 9                        43.400  
  22022385.547                   115728354.215 7     -1817.078          49.800  
  22022393.121    22022393.000    90177954.039 8                        37.400  
  23021073.563    23021072.715   123060786.148 7     -1109.948          47.300  
                  23021081.547    95714017.934 9      -863.294          41.400  
  22604100.336    22604099.020   120620143.034 7      2430.926          46.500  
                  22604108.438    93815528.318 8      1890.714          38.600  
  22784453.609    22784454.055   121753190.853 6     -4510.639          42.500  
                  22784465.816    94696872.647 8     -3508.266          35.600  
  19680945.859    19680945.129   105131905.583 7     -1560.781          48.400  
                  19680952.551    81769372.886 9     -1213.940          46.100  
  21275299.203    21275297.184   113608920.727 7      2767.789          46.800  
                  21275304.488    88362484.832 9      2152.727          45.100  
  21224081.531    21224080.566   113574412.662 8     -3065.362          49.100  
                  21224087.988    88335584.324 9     -2384.171          45.500  
  19240875.531    19240873.160   102709182.708 8       -27.496          51.900  
                  19240879.406    79884840.543 9       -21.388          49.300  
  22201282.266    22201281.652   118762672.853 7      3194.534          47.400  
                  22201291.773    92370409.781 9      2484.632          43.200  
 14 10 17  7 38 40.0000000  0 15G02G05G16G21G25G29G31R05R06R11R12R13 0.000000000
                                R21R22R23                   
  24991169.852                   131329412.509 3     -3269.607          36.700  
                                                                                
  23281870.016                   122347087.748 6       224.822          45.200  
  23281879.699    23281879.461    95335449.655 7                        31.600  
  24341158.180                   127913628.482 5      3476.533          41.700  
                  24341164.461    99672972.617 5                        16.900  
  22344911.188                   117423397.991 7      2466.247          48.700  
                  22344917.586    91498726.208 8                        34.000  
  22315913.336                   117271023.405 6     -3055.470          46.700  
  22315924.484                                                                  
  20282006.391                   106582606.478 7      -987.759          49.900  
  20282013.086    20282013.023    83051428.021 9                        43.100  
  22024115.938                   115737448.329 7     -1819.950          49.400  
  22024123.277    22024123.332    90185040.348 8                        36.800  
  23022113.766    23022113.859   123066348.929 7     -1114.272          48.100  
                  23022122.922    95718344.540 9      -866.654          42.100  
  22601824.563    22601823.832   120607998.741 7      2427.514          47.000  
                  22601833.016    93806082.774 8      1888.060          38.400  
  22788676.320    22788675.590   121775747.852 6     -4511.864          42.300  
                  22788686.531    94714416.938 8     -3509.222          35.000  
  19682409.234    19682408.855   105139723.363 7     -1565.394          48.300  
                  19682416.160    81775453.380 9     -1217.532          46.300  
  21272708.914    21272707.715   113595092.697 7      2764.173          46.700  
                  21272715.137    88351729.700 9      2149.908          45.100  
  21226946.508    21226945.660   113589743.287 8     -3066.645          49.200  
                  21226953.551    88347508.121 9     -2385.167          45.500  
  19240903.148    19240902.066   102709329.048 8       -30.424          52.200  
                  19240907.727    79884954.362 9       -23.664          49.000  
  22198296.984    22198296.961   118746705.197 7      3192.877          47.500  
                  22198306.609    92357990.504 9      2483.347          43.400  
 14 10 17  7 38 45.0000000  0 15G02G05G16G21G25G29G31R05R06R11R12R13 0.000000000
                                R21R22R23                   
  24994281.023                   131345761.977 2     -3270.182          34.800  
                                                                                
  23281657.805                   122345973.164 6       221.573          45.300  
  23281667.547    23281667.602    95334581.139 7                        31.600  
  24337851.625                   127896247.130 6      3476.027          42.100  
                  24337857.496    99659428.714 6                        18.300  
  22342565.891                   117411071.694 7      2464.515          48.800  
                  22342571.996    91489121.304 8                        33.800  
  22318821.305                   117286305.339 6     -3057.069          46.600  
  22318832.570                                                                  
  20282946.789                   106587550.868 7      -989.709          50.300  
  20282953.602    20282953.539    83055280.789 9                        43.000  
  22025849.352                   115746555.965 7     -1822.671          50.300  
  22025856.867    22025856.570    90192137.204 8                        37.000  
  23023158.789    23023157.590   123071932.652 7     -1118.489          48.400  
                  23023166.773    95722687.431 9      -869.937          42.100  
  22599551.688    22599550.840   120595870.904 7      2424.186          47.300  
                  22599559.789    93796650.044 8      1885.477          38.100  
  22792897.469    22792897.445   121798310.146 6     -4512.941          42.900  
                  22792908.266    94731965.365 8     -3510.063          35.400  
  19683877.156    19683875.957   105147563.445 7     -1569.854          48.400  
                  19683883.379    81781551.212 9     -1220.996          46.700  
  21270121.672    21270121.531   113581281.935 7      2760.732          46.600  
                  21270128.715    88340987.994 9      2147.234          44.900  
  21229812.383    21229811.535   113605079.619 8     -3067.769          49.400  
                  21229819.426    88359436.359 9     -2386.036          45.800  
  19240933.055    19240931.738   102709489.007 8       -33.159          52.000  
                  19240937.398    79885078.771 9       -25.787          48.500  
  22195312.758    22195313.086   118730744.790 7      3191.469          47.000  
                  22195322.969    92345576.861 9      2482.244          42.800  
 14 10 17  7 38 50.0000000  0 15G02G05G16G21G25G29G31R05R06R11R12R13 0.000000000
                                R21R22R23                   
  24997393.508                   131362114.461 2     -3270.714          35.000  
                                                                                
  23281449.078                   122344875.164 6       218.294          44.900  
  23281459.289    23281458.816    95333725.552 7                        31.500  
  24334544.438                   127878868.350 5      3475.579          42.000  
                  24334550.191    99645886.802 6                        18.600  
  22340221.680                   117398754.195 7      2462.815          48.500  
                  22340228.020    91479523.255 7                        32.800  
  22321731.859                   117301595.493 6     -3058.655          47.000  
  22321742.773                                                                  
  20283889.883                   106592505.178 7      -991.638          50.200  
  20283896.754    20283896.691    83059141.284 9                        42.500  
  22027584.930                   115755677.412 7     -1825.369          49.300  
  22027591.918    22027591.621    90199244.810 8                        36.600  
  23024207.672    23024206.941   123077537.576 7     -1122.659          48.400  
                  23024216.008    95727046.808 9      -873.179          42.200  
  22597282.719    22597280.934   120583759.714 7      2420.942          46.700  
                  22597289.996    93787230.247 8      1882.948          38.700  
  22797121.539    22797121.516   121820877.949 6     -4513.979          42.800  
                  22797132.102    94749518.053 8     -3510.856          35.600  
  19685348.211    19685347.480   105155426.140 7     -1574.310          48.200  
                  19685355.020    81787666.634 9     -1224.465          46.200  
  21267539.375    21267538.410   113567488.576 7      2757.306          47.300  
                  21267545.949    88330259.834 9      2144.563          44.500  
  21232679.922    21232678.723   113620421.800 8     -3068.889          49.800  
                  21232686.730    88371369.153 9     -2386.907          45.600  
  19240965.477    19240964.746   102709663.010 8       -35.903          52.300  
                  19240970.293    79885214.101 9       -27.916          48.800  
  22192331.188    22192330.574   118714791.812 7      3190.008          47.200  
                  22192340.695    92333168.996 9      2481.114          43.500  
 14 10 17  7 38 55.0000000  0 15G02G05G16G21G25G29G31R05R06R11R12R13 0.000000000
                                R21R22R23                   
  25000506.164                   131378469.830 2     -3271.366          34.800  
                                                                                
  23281243.359                   122343793.482 6       214.986          44.700  
  23281252.984    23281252.980    95332882.676 7                        32.300  
  24331237.219                   127861491.913 5      3475.028          42.000  
                  24331244.379    99632346.700 5                        17.400  
  22337879.109                   117386445.182 7      2461.070          48.800  
                  22337885.742    91469931.830 8                        33.700  
  22324642.477                   117316893.564 6     -3060.295          46.500  
  22324653.391                                                                  
  20284834.500                   106597469.100 7      -993.598          50.300  
  20284841.781    20284841.602    83063009.271 9                        42.900  
  22029323.922                   115764812.356 7     -1828.113          49.600  
  22029330.969    22029330.848    90206362.942 8                        36.800  
  23025260.391    23025258.137   123083163.331 7     -1126.875          48.800  
                  23025267.082    95731422.387 9      -876.452          41.800  
  22595016.445    22595015.129   120571664.764 7      2417.621          47.200  
                  22595024.074    93777823.098 8      1880.369          38.300  
  22801345.352    22801345.797   121843450.729 6     -4514.995          42.700  
                  22801356.855    94767074.618 8     -3511.656          35.500  
  19686824.586    19686824.445   105163311.169 7     -1578.864          48.100  
                  19686831.395    81793799.427 9     -1228.006          46.200  
  21264959.906    21264959.176   113553712.373 7      2753.803          47.400  
                  21264966.129    88319545.014 9      2141.841          44.700  
  21235548.414    21235547.332   113635769.660 8     -3070.087          49.800  
                  21235554.988    88383306.365 9     -2387.840          45.300  
  19241001.234    19241000.270   102709850.744 8       -38.696          52.200  
                  19241005.695    79885360.114 9       -30.096          48.600  
  22189350.305    22189349.691   118698846.228 7      3188.490          46.700  
                  22189360.047    92320766.870 9      2479.936          43.800  
 14 10 17  7 39  0.0000000  0 15G02G05G16G21G25G29G31R05R06R11R12R13 0.000000000
                                R21R22R23                   
  25003619.055                   131394827.957 2     -3271.798          34.600  
                                                                                
  23281040.398                   122342728.137 6       211.823          44.900  
  23281049.730    23281049.492    95332052.542 7                        31.500  
  24327932.383                   127844117.840 6      3474.676          42.800  
                  24327937.199    99618808.451 6                        18.600  
  22335538.773                   117374144.745 7      2459.457          48.400  
                  22335545.348    91460347.079 8                        34.000  
  22327554.852                   117332199.601 6     -3061.793          46.000  
  22327566.234                                                                  
  20285781.070                   106602442.654 7      -995.415          50.500  
  20285787.238    20285787.059    83066884.761 9                        42.700  
  22031063.734                   115773960.835 7     -1830.718          49.100  
  22031071.426    22031071.246    90213491.620 8                        36.600  
  23026316.305    23026315.223   123088810.091 7     -1130.968          47.900  
                  23026324.289    95735814.305 9      -879.646          41.400  
  22592752.234    22592750.332   120559586.280 7      2414.450          46.400  
                  22592759.512    93768428.758 8      1877.899          38.700  
  22805570.445    22805570.656   121866028.781 6     -4515.974          43.100  
                  22805581.715    94784635.282 8     -3512.421          35.200  
  19688305.750    19688304.316   105171218.452 7     -1583.227          48.000  
                  19688311.504    81799949.529 9     -1231.399          45.900  
  21262383.383    21262381.363   113539953.512 7      2750.460          47.000  
                  21262389.137    88308843.676 9      2139.246          44.900  
  21238416.609    21238416.348   113651123.060 8     -3071.059          49.500  
                  21238423.887    88395247.881 9     -2388.594          45.500  
  19241038.625    19241037.543   102710052.157 8       -41.319          52.300  
                  19241042.969    79885516.772 9       -32.142          49.300  
  22186370.453    22186370.074   118682907.829 7      3187.131          46.800  
                  22186380.898    92308370.348 9      2478.878          43.400  
 14 10 17  7 39  5.0000000  0 15G02G05G16G21G25G29G31R05R06R11R12R13 0.000000000
                                R21R22R23                   
  25006731.633                   131411189.104 2     -3272.450          34.200  
                                                                                
  23280840.758                   122341679.385 6       208.444          44.800  
  23280850.266    23280849.969    95331235.331 7                        31.300  
  24324626.188                   127826746.371 6      3474.121          43.500  
                  24324631.766    99605272.260 6                        19.000  
  22333199.406                   117361853.057 7      2457.653          48.700  
                  22333206.098    91450769.148 8                        33.900  
  22330469.055                   117347513.822 6     -3063.478          46.400  
  22330480.613                                                                  
  20286729.352                   106607426.103 7      -997.465          50.500  
  20286736.164    20286735.867    83070767.963 9                        42.800  
  22032808.297                   115783123.062 7     -1833.515          49.800  
  22032815.695    22032815.516    90220631.005 8                        37.500  
  23027375.703    23027375.441   123094477.934 7     -1135.251          47.700  
                  23027384.625    95740222.621 9      -882.971          41.500  
  22590492.734    22590491.184   120547524.277 7      2411.074          47.500  
                  22590499.426    93759047.234 8      1875.273          38.200  
  22809796.289    22809796.969   121888612.298 6     -4517.137          43.000  
                  22809808.379    94802200.193 8     -3513.318          35.400  
  19689789.703    19689789.207   105179148.320 7     -1587.779          47.900  
                  19689796.277    81806117.194 9     -1234.933          46.200  
  21259810.063    21259809.922   113526212.115 7      2746.888          47.100  
                  21259817.340    88298155.914 9      2136.469          45.100  
  21241287.180    21241286.684   113666482.348 8     -3072.308          49.700  
                  21241294.105    88407193.973 9     -2389.568          45.600  
  19241079.492    19241078.176   102710267.554 8       -44.176          51.900  
                  19241083.836    79885684.301 9       -34.360          49.000  
  22183392.156    22183392.367   118666977.022 7      3185.598          47.200  
                  22183403.191    92295979.720 9      2477.688          42.900  
 14 10 17  7 39 10.0000000  0 15G02G05G16G21G25G29G31R05R06R11R12R13 0.000000000
                                R21R22R23                   
  25009846.594                   131427553.198 2     -3273.014          33.700  
                                                                                
  23280644.844                   122340647.032 6       205.193          45.100  
  23280653.355    23280653.117    95330430.896 7                        31.200  
  24321321.414                   127809377.405 6      3473.609          43.200  
                  24321327.285    99591737.953 5                        17.400  
  22330862.117                   117349570.051 7      2455.937          48.900  
                  22330868.633    91441197.975 8                        34.300  
  22333384.375                   117362836.053 6     -3065.063          46.700  
  22333395.816                                                                  
  20287680.133                   106612419.244 7      -999.360          50.900  
  20287685.832    20287685.770    83074658.723 9                        42.300  
  22034554.508                   115792298.869 7     -1836.205          49.600  
  22034561.203    22034561.082    90227780.964 8                        37.300  
  23028440.633    23028439.199   123100166.769 7     -1139.414          47.900  
                  23028447.910    95744647.272 9      -886.207          42.000  
  22588235.398    22588234.199   120535478.758 7      2407.813          47.500  
                  22588241.973    93749678.509 8      1872.733          38.400  
  22814023.930    22814024.141   121911201.089 6     -4518.149          42.600  
                  22814035.668    94819769.194 8     -3514.101          36.000  
  19691277.930    19691276.965   105187100.558 7     -1592.239          48.400  
                  19691284.152    81812302.264 9     -1238.410          46.100  
  21257240.344    21257238.910   113512487.996 7      2743.496          47.000  
                  21257246.449    88287481.606 9      2133.834          44.500  
  21244159.188    21244158.340   113681847.325 8     -3073.433          50.200  
                  21244165.879    88419144.494 9     -2390.444          45.300  
  19241122.109    19241121.145   102710496.801 8       -46.922          52.000  
                  19241126.805    79885862.599 9       -36.495          49.400  
  22180414.977    22180415.656   118651053.523 7      3184.146          47.500  
                  22180426.246    92283594.775 9      2476.557          43.400  
 14 10 17  7 39 15.0000000  0 15G02G05G16G21G25G29G31R05R06R11R12R13 0.000000000
                                R21R22R23                   
  25012961.320                   131443920.211 2     -3273.685          33.400  
                                                                                
  23280451.445                   122339631.215 6       201.832          45.200  
  23280459.664    23280459.777    95329639.344 7                        31.500  
  24318016.344                   127792011.019 6      3473.041          42.700  
                  24318021.746    99578205.731 6                        18.300  
  22328525.891                   117337295.760 7      2454.142          48.300  
                  22328532.816    91431633.610 8                        33.700  
  22336302.117                   117378166.369 6     -3066.719          46.400  
  22336312.973                                                                  
  20288631.547                   106617422.182 7     -1001.391          50.600  
  20288638.535    20288638.238    83078557.113 9                        42.700  
  22036302.867                   115801488.345 7     -1838.990          50.000  
  22036308.859    22036309.207    90234941.586 8                        37.400  
  23029508.508    23029508.129   123105876.701 7     -1143.692          47.500  
                  23029517.313    95749088.325 9      -889.536          42.300  
  22585979.430    22585978.582   120523449.840 7      2404.441          46.100  
                  22585986.941    93740322.712 8      1870.111          37.700  
  22818253.203    22818251.770   121933795.145 6     -4519.258          42.200  
                  22818263.531    94837342.293 8     -3514.974          35.800  
  19692771.070    19692769.402   105195075.320 7     -1596.789          47.900  
                  19692776.473    81818504.852 9     -1241.943          46.200  
  21254673.086    21254671.770   113498781.363 7      2739.886          47.400  
                  21254678.957    88276820.887 9      2131.024          44.600  
  21247031.828    21247030.863   113697218.102 8     -3074.588          50.800  
                  21247038.285    88431099.534 9     -2391.341          45.700  
  19241167.891    19241166.809   102710739.954 8       -49.744          52.200  
                  19241172.000    79886051.715 9       -38.690          49.500  
  22177440.383    22177439.652   118635137.428 7      3182.598          47.000  
                  22177450.594    92271215.605 9      2475.347          44.300  
 14 10 17  7 39 20.0000000  0 15G02G05G16G21G25G29G31R05R06R11R12R13 0.000000000
                                R21R22R23                   
  25016077.063                   131460289.975 2     -3274.210          34.600  
                                                                                
  23280261.641                   122338631.729 6       198.578          45.200  
  23280270.035    23280269.973    95328860.524 7                        31.500  
  24314711.969                   127774646.989 6      3472.618          43.100  
                  24314717.840    99564675.311 6                        18.600  
  22326191.773                   117325030.006 7      2452.447          49.000  
                  22326198.934    91422075.896 8                        34.300  
  22339220.609                   117393504.568 6     -3068.263          46.700  
  22339232.168                                                                  
  20289585.422                   106622434.684 7     -1003.281          50.800  
  20289592.000    20289591.820    83082462.943 9                        42.800  
  22038054.039                   115810691.319 7     -1841.684          50.300  
  22038060.969    22038061.199    90242112.721 8                        37.000  
  23030581.453    23030580.254   123111607.507 7     -1147.851          48.000  
                  23030589.672    95753545.613 9      -892.766          41.700  
  22583729.375    22583727.941   120511437.432 7      2401.166          46.500  
                  22583736.184    93730979.770 8      1867.569          37.900  
  22822482.031    22822481.535   121956394.167 6     -4520.203          42.600  
                  22822492.359    94854919.260 8     -3515.702          34.100  
  19694267.945    19694266.863   105203072.264 7     -1601.168          48.000  
                  19694273.816    81824724.684 9     -1245.351          45.600  
  21252110.367    21252108.348   113485092.145 7      2736.462          47.600  
                  21252115.418    88266173.717 9      2128.356          45.100  
  21249905.398    21249904.199   113712594.535 8     -3075.724          50.300  
                  21249911.738    88443058.969 9     -2392.228          44.900  
  19241215.961    19241215.230   102710996.712 8       -52.457          52.000  
                  19241220.188    79886251.416 9       -40.805          49.300  
  22174466.547    22174465.582   118619228.443 7      3181.206          47.300  
                  22174476.289    92258841.938 9      2474.273          43.700  
 14 10 17  7 39 25.0000000  0 15G02G05G16G21G25G29G31R05R06R11R12R13 0.000000000
                                R21R22R23                   
  25019193.672                   131476662.522 2     -3274.706          34.200  
                                                                                
  23280074.055                   122337648.635 6       195.299          44.600  
  23280082.625    23280082.387    95328094.471 7                        30.500  
  24311407.484                   127757285.363 6      3472.126          42.300  
                  24311413.473    99551146.743 5                        17.800  
  22323859.719                   117312772.878 7      2450.735          48.500  
                  22323866.938    91412524.891 8                        34.200  
  22342140.516                   117408850.757 6     -3069.866          46.400  
  22342152.133                                                                  
  20290541.375                   106627456.884 7     -1005.212          50.600  
  20290547.836    20290547.480    83086376.338 9                        42.600  
  22039807.430                   115819907.827 7     -1844.388          49.600  
  22039814.477    22039814.766    90249294.403 8                        37.200  
  23031656.266    23031656.125   123117359.139 7     -1152.003          47.000  
                  23031665.773    95758019.104 9      -896.000          42.400  
  22581480.359    22581479.746   120499441.480 7      2397.859          46.000  
                  22581488.227    93721649.600 8      1864.994          37.900  
  22826712.664    22826711.816   121978998.378 6     -4521.261          43.300  
                  22826721.938    94872500.282 8     -3516.526          34.400  
  19695768.984    19695768.961   105211091.556 7     -1605.645          48.300  
                  19695776.145    81830961.901 9     -1248.828          45.600  
  21249550.391    21249548.488   113471420.121 7      2733.014          47.600  
                  21249555.676    88255539.926 9      2125.677          44.700  
  21252779.070    21252778.809   113727976.507 8     -3076.824          49.600  
                  21252786.230    88455022.710 9     -2393.082          45.500  
  19241266.844    19241265.762   102711267.306 8       -55.223          52.500  
                  19241270.836    79886461.876 9       -42.950          49.200  
  22171493.523    22171493.145   118603326.980 7      3179.690          47.800  
                  22171503.500    92246474.148 9      2473.088          43.100  
